{
  "version": 0.6,
  "generator": "Overpass API 0.7.62.8 e802775f",
  "osm3s": {
    "timestamp_osm_base": "2026-01-06T13:30:59Z",
    "copyright": "The data included in this document is from www.openstreetmap.org. The data is made available under ODbL."
  },
  "elements": [

{
  "type": "node",
  "id": 301656606,
  "lat": 51.2630114,
  "lon": 22.6295407,
  "tags": {
    "bus": "yes",
    "name": "Kasprowicza - Wólka 01",
    "network": "Lublin",
    "operator": "ZDiTM Lublin",
    "public_transport": "stop_position",
    "ref": "2351"
  }
},
{
  "type": "node",
  "id": 303179351,
  "lat": 51.2457596,
  "lon": 22.6433787,
  "tags": {
    "bus": "yes",
    "name": "Mełgiewska - chłodnia 01",
    "network": "Lublin",
    "operator": "ZDiTM Lublin",
    "public_transport": "stop_position",
    "ref": "2571"
  }
},
{
  "type": "node",
  "id": 368748779,
  "lat": 51.2129128,
  "lon": 22.6856105,
  "tags": {
    "bus": "yes",
    "name": "Lotników Polskich - stacja paliw 02",
    "network": "Lublin",
    "operator": "ZDiTM Lublin",
    "public_transport": "stop_position",
    "ref": "8322",
    "source": "http://ump.waw.pl/ retrieved 17:30:44 04/01/09 (UMP-Lublin/src/SWIDNIK.ulice.txt)"
  }
},
{
  "type": "node",
  "id": 371886121,
  "lat": 51.1463620,
  "lon": 22.5088105,
  "tags": {
    "bus": "yes",
    "name": "Wykietówka NŻ 02",
    "network": "Lublin",
    "operator": "ZDiTM Lublin",
    "public_transport": "stop_position",
    "ref": "4892"
  }
},
{
  "type": "node",
  "id": 481915500,
  "lat": 51.2427101,
  "lon": 22.5903842,
  "tags": {
    "bus": "yes",
    "name": "Przyjaźni 02",
    "network": "Lublin",
    "operator": "ZDiTM Lublin",
    "public_transport": "stop_position",
    "ref": "2612",
    "trolleybus": "yes"
  }
},
{
  "type": "node",
  "id": 481917066,
  "lat": 51.2592598,
  "lon": 22.5800308,
  "tags": {
    "bus": "yes",
    "name": "Andersa - cmentarz NŻ 01",
    "network": "Lublin",
    "operator": "ZDiTM Lublin",
    "public_transport": "stop_position",
    "ref": "2141"
  }
},
{
  "type": "node",
  "id": 481919916,
  "lat": 51.2517751,
  "lon": 22.4427399,
  "tags": {
    "bus": "yes",
    "name": "Uniszowice - stawy 02",
    "network": "Lublin",
    "operator": "ZDiTM Lublin",
    "public_transport": "stop_position",
    "ref": "9202"
  }
},
{
  "type": "node",
  "id": 481920098,
  "lat": 51.2554244,
  "lon": 22.5797362,
  "tags": {
    "bus": "yes",
    "name": "Krzemieniecka 02",
    "network": "Lublin",
    "operator": "ZDiTM Lublin",
    "public_transport": "stop_position",
    "ref": "2102",
    "trolleybus": "yes"
  }
},
{
  "type": "node",
  "id": 481922724,
  "lat": 51.2247479,
  "lon": 22.6100616,
  "tags": {
    "access": "no",
    "bus": "deisignated",
    "name": "Majdanek 02",
    "network": "Lublin",
    "operator": "ZDiTM Lublin",
    "public_transport": "stop_position",
    "ref": "3152",
    "trolleybus": "yes"
  }
},
{
  "type": "node",
  "id": 481922801,
  "lat": 51.2256609,
  "lon": 22.6338970,
  "tags": {
    "bus": "yes",
    "name": "Felin Uniwersytet 02",
    "network": "Lublin",
    "operator": "ZDiTM Lublin",
    "public_transport": "stop_position",
    "ref": "2962"
  }
},
{
  "type": "node",
  "id": 481924963,
  "lat": 51.2517202,
  "lon": 22.5861746,
  "tags": {
    "bus": "yes",
    "name": "Tatarska 01",
    "network": "Lublin",
    "operator": "ZDiTM Lublin",
    "public_transport": "stop_position",
    "ref": "2501"
  }
},
{
  "type": "node",
  "id": 481924965,
  "lat": 51.2518627,
  "lon": 22.5843542,
  "tags": {
    "bus": "yes",
    "name": "Tatarska 02",
    "network": "Lublin",
    "operator": "ZDiTM Lublin",
    "public_transport": "stop_position",
    "ref": "2502"
  }
},
{
  "type": "node",
  "id": 481925259,
  "lat": 51.2587972,
  "lon": 22.5830996,
  "tags": {
    "bus": "yes",
    "name": "Rondo Berbeckiego 04",
    "network": "Lublin",
    "operator": "ZDiTM Lublin",
    "public_transport": "stop_position",
    "ref": "2114",
    "source": "http://ump.waw.pl/ retrieved 23:59:15 08/30/09 (UMP-Lublin/src/LUBLIN.ulice.txt)"
  }
},
{
  "type": "node",
  "id": 481925264,
  "lat": 51.2597409,
  "lon": 22.5784348,
  "tags": {
    "bus": "yes",
    "name": "Andersa - cmentarz NŻ 02",
    "network": "Lublin",
    "operator": "ZDiTM Lublin",
    "public_transport": "stop_position",
    "ref": "2142",
    "source": "http://ump.waw.pl/ retrieved 23:59:15 08/30/09 (UMP-Lublin/src/LUBLIN.ulice.txt)"
  }
},
{
  "type": "node",
  "id": 481925405,
  "lat": 51.2538030,
  "lon": 22.5500192,
  "tags": {
    "bus": "yes",
    "name": "Paganiniego 02",
    "network": "Lublin",
    "operator": "ZDiTM Lublin",
    "public_transport": "stop_position",
    "ref": "1302"
  }
},
{
  "type": "node",
  "id": 481926267,
  "lat": 51.2359889,
  "lon": 22.6238150,
  "tags": {
    "bus": "yes",
    "name": "Dworzec Towarowy PKP NŻ 02",
    "network": "Lublin",
    "operator": "ZDiTM Lublin",
    "public_transport": "stop_position",
    "ref": "2742"
  }
},
{
  "type": "node",
  "id": 481926402,
  "lat": 51.2573603,
  "lon": 22.5456826,
  "tags": {
    "bus": "yes",
    "name": "Os. Lipińskiego 02",
    "network": "Lublin",
    "operator": "ZDiTM Lublin",
    "public_transport": "stop_position",
    "ref": "1422"
  }
},
{
  "type": "node",
  "id": 481928686,
  "lat": 51.1950940,
  "lon": 22.5372463,
  "tags": {
    "bus": "yes",
    "name": "Most im. Kaczorowskiego NŻ 01",
    "network": "Lublin",
    "operator": "ZDiTM Lublin",
    "public_transport": "stop_position",
    "ref": "4601"
  }
},
{
  "type": "node",
  "id": 481928955,
  "lat": 51.2005553,
  "lon": 22.5276769,
  "tags": {
    "bus": "yes",
    "name": "Lipska 01",
    "network": "Lublin",
    "operator": "ZDiTM Lublin",
    "public_transport": "stop_position",
    "ref": "4791"
  }
},
{
  "type": "node",
  "id": 481929247,
  "lat": 51.2240039,
  "lon": 22.5577167,
  "tags": {
    "bus": "yes",
    "name": "Skwer Borowiczan 01",
    "network": "Lublin",
    "operator": "ZDiTM Lublin",
    "public_transport": "stop_position",
    "ref": "4521",
    "source": "http://ump.waw.pl/ retrieved 23:59:15 08/30/09 (UMP-Lublin/src/LUBLIN.ulice.txt)"
  }
},
{
  "type": "node",
  "id": 481929767,
  "lat": 51.2367200,
  "lon": 22.6129300,
  "tags": {
    "bus": "yes",
    "name": "Walentynowicz NŻ 01",
    "network": "Lublin",
    "operator": "ZDiTM Lublin",
    "public_transport": "stop_position",
    "ref": "2721"
  }
},
{
  "type": "node",
  "id": 481930767,
  "lat": 51.2523337,
  "lon": 22.5605638,
  "tags": {
    "bus": "yes",
    "name": "Dolna 3 Maja 01",
    "network": "Lublin",
    "operator": "ZDiTM Lublin",
    "public_transport": "stop_position",
    "ref": "1171",
    "trolleybus": "yes"
  }
},
{
  "type": "node",
  "id": 481931093,
  "lat": 51.2451155,
  "lon": 22.5572872,
  "tags": {
    "bus": "yes",
    "name": "Okopowa 03",
    "network": "Lublin",
    "operator": "ZDiTM Lublin",
    "public_transport": "stop_position",
    "ref": "1083"
  }
},
{
  "type": "node",
  "id": 481931593,
  "lat": 51.2798837,
  "lon": 22.5744693,
  "tags": {
    "bus": "yes",
    "name": "IKEA 02",
    "network": "Lublin",
    "operator": "ZDiTM Lublin",
    "public_transport": "stop_position",
    "ref": "1882",
    "source": "http://ump.waw.pl/ retrieved 23:59:15 08/30/09 (UMP-Lublin/src/LUBLIN.ulice.txt)"
  }
},
{
  "type": "node",
  "id": 481931601,
  "lat": 51.2750423,
  "lon": 22.5736256,
  "tags": {
    "bus": "yes",
    "name": "Dożynkowa 02",
    "network": "Lublin",
    "operator": "ZDiTM Lublin",
    "public_transport": "stop_position",
    "ref": "1872"
  }
},
{
  "type": "node",
  "id": 481932616,
  "lat": 51.2420049,
  "lon": 22.5078440,
  "tags": {
    "bus": "yes",
    "name": "Poczekajka 04",
    "network": "Lublin",
    "operator": "ZDiTM Lublin",
    "public_transport": "stop_position",
    "ref": "5724",
    "trolleybus": "yes"
  }
},
{
  "type": "node",
  "id": 481932996,
  "lat": 51.2415592,
  "lon": 22.5085703,
  "tags": {
    "bus": "yes",
    "name": "Irydiona 01",
    "network": "Lublin",
    "operator": "ZDiTM Lublin",
    "public_transport": "stop_position",
    "ref": "5461",
    "trolleybus": "yes"
  }
},
{
  "type": "node",
  "id": 481933038,
  "lat": 51.2300970,
  "lon": 22.5132899,
  "tags": {
    "bus": "yes",
    "name": "Jutrzenki 02",
    "network": "Lublin",
    "operator": "ZDiTM Lublin",
    "public_transport": "stop_position",
    "ref": "5532",
    "source": "http://ump.waw.pl/ retrieved 23:59:15 08/30/09 (UMP-Lublin/src/LUBLIN.ulice.txt)",
    "trolleybus": "yes"
  }
},
{
  "type": "node",
  "id": 481933514,
  "lat": 51.2669918,
  "lon": 22.5465283,
  "tags": {
    "bus": "yes",
    "name": "Żelazowej Woli 01",
    "network": "Lublin",
    "operator": "ZDiTM Lublin",
    "public_transport": "stop_position",
    "ref": "1341"
  }
},
{
  "type": "node",
  "id": 481934817,
  "lat": 51.2145893,
  "lon": 22.5453144,
  "tags": {
    "bus": "yes",
    "name": "Romera - kościół 02",
    "network": "Lublin",
    "operator": "ZDiTM Lublin",
    "public_transport": "stop_position",
    "ref": "4552",
    "trolleybus": "yes"
  }
},
{
  "type": "node",
  "id": 481935951,
  "lat": 51.2381293,
  "lon": 22.5696122,
  "tags": {
    "bus": "yes",
    "name": "Rondo Lubelskiego Lipca 05",
    "network": "Lublin",
    "operator": "ZDiTM Lublin",
    "public_transport": "stop_position",
    "ref": "3105",
    "source": "http://ump.waw.pl/ retrieved 23:59:15 08/30/09 (UMP-Lublin/src/LUBLIN.ulice.txt)",
    "trolleybus": "yes"
  }
},
{
  "type": "node",
  "id": 481935981,
  "lat": 51.2467040,
  "lon": 22.5666777,
  "tags": {
    "bus": "yes",
    "name": "Brama Krakowska 02",
    "network": "Lublin",
    "operator": "ZDiTM Lublin",
    "public_transport": "stop_position",
    "ref": "1032",
    "source": "http://ump.waw.pl/ retrieved 23:59:15 08/30/09 (UMP-Lublin/src/LUBLIN.ulice.txt)"
  }
},
{
  "type": "node",
  "id": 481936138,
  "lat": 51.2468379,
  "lon": 22.5630532,
  "tags": {
    "bus": "yes",
    "name": "Plac Wolności 01",
    "network": "Lublin",
    "operator": "ZDiTM Lublin",
    "public_transport": "stop_position",
    "ref": "1041",
    "trolleybus": "yes"
  }
},
{
  "type": "node",
  "id": 481938695,
  "lat": 51.2811235,
  "lon": 22.5031021,
  "tags": {
    "bus": "yes",
    "name": "Szafranowa NŻ 02",
    "network": "Lublin",
    "operator": "ZDiTM Lublin",
    "public_transport": "stop_position",
    "ref": "6792"
  }
},
{
  "type": "node",
  "id": 481942254,
  "lat": 51.2328601,
  "lon": 22.4911124,
  "tags": {
    "bus": "yes",
    "name": "Mazowiecka 01",
    "network": "Lublin",
    "operator": "ZDiTM Lublin",
    "public_transport": "stop_position",
    "ref": "5811"
  }
},
{
  "type": "node",
  "id": 481942624,
  "lat": 51.2223141,
  "lon": 22.5385988,
  "tags": {
    "bus": "yes",
    "name": "Wąwozowa NŻ 02",
    "network": "Lublin",
    "operator": "ZDiTM Lublin",
    "public_transport": "stop_position",
    "ref": "4742"
  }
},
{
  "type": "node",
  "id": 481943021,
  "lat": 51.2339329,
  "lon": 22.5709817,
  "tags": {
    "bus": "yes",
    "name": "Plac Bychawski 01",
    "network": "Lublin",
    "operator": "ZDiTM Lublin",
    "public_transport": "stop_position",
    "ref": "3701",
    "trolleybus": "yes"
  }
},
{
  "type": "node",
  "id": 481943824,
  "lat": 51.2453555,
  "lon": 22.5594837,
  "tags": {
    "bus": "yes",
    "name": "Mościckiego 02",
    "network": "Lublin",
    "operator": "ZDiTM Lublin",
    "public_transport": "stop_position",
    "ref": "1052",
    "trolleybus": "yes"
  }
},
{
  "type": "node",
  "id": 481946595,
  "lat": 51.2405316,
  "lon": 22.5314063,
  "tags": {
    "bus": "yes",
    "name": "Piastowska 02",
    "public_transport": "stop_position",
    "source": "http://ump.waw.pl/ retrieved 23:59:15 08/30/09 (UMP-Lublin/src/LUBLIN.ulice.txt)",
    "trolleybus": "yes"
  }
},
{
  "type": "node",
  "id": 481946719,
  "lat": 51.2259174,
  "lon": 22.5375047,
  "tags": {
    "bus": "yes",
    "name": "Os. Skarpa 02",
    "network": "Lublin",
    "operator": "ZDiTM Lublin",
    "public_transport": "stop_position",
    "ref": "5132",
    "trolleybus": "yes"
  }
},
{
  "type": "node",
  "id": 481946769,
  "lat": 51.2388582,
  "lon": 22.5306592,
  "tags": {
    "bus": "yes",
    "name": "ZUS 02",
    "network": "Lublin",
    "operator": "ZDiTM Lublin",
    "public_transport": "stop_position",
    "ref": "5412",
    "trolleybus": "yes"
  }
},
{
  "type": "node",
  "id": 481947030,
  "lat": 51.2585946,
  "lon": 22.5456072,
  "tags": {
    "bus": "yes",
    "name": "Kiepury 02",
    "network": "Lublin",
    "operator": "ZDiTM Lublin",
    "public_transport": "stop_position",
    "ref": "1412"
  }
},
{
  "type": "node",
  "id": 481950645,
  "lat": 51.2588340,
  "lon": 22.5460123,
  "tags": {
    "bus": "yes",
    "name": "Kiepury 01",
    "network": "Lublin",
    "operator": "ZDiTM Lublin",
    "public_transport": "stop_position",
    "ref": "1411"
  }
},
{
  "type": "node",
  "id": 481950701,
  "lat": 51.2534396,
  "lon": 22.5217658,
  "tags": {
    "bus": "yes",
    "name": "Czeremchowa 02",
    "network": "Lublin",
    "operator": "ZDiTM Lublin",
    "public_transport": "stop_position",
    "ref": "6492"
  }
},
{
  "type": "node",
  "id": 481950715,
  "lat": 51.2476250,
  "lon": 22.5206290,
  "tags": {
    "bus": "yes",
    "name": "Nałęczowska 04",
    "network": "Lublin",
    "operator": "ZDiTM Lublin",
    "public_transport": "stop_position",
    "ref": "5704"
  }
},
{
  "type": "node",
  "id": 481950728,
  "lat": 51.2220738,
  "lon": 22.5387391,
  "tags": {
    "bus": "yes",
    "name": "Wąwozowa NŻ 01",
    "network": "Lublin",
    "operator": "ZDiTM Lublin",
    "public_transport": "stop_position",
    "ref": "4741"
  }
},
{
  "type": "node",
  "id": 481950947,
  "lat": 51.2506855,
  "lon": 22.5306940,
  "tags": {
    "bus": "yes",
    "name": "Spadochroniarzy 01",
    "network": "Lublin",
    "operator": "ZDiTM Lublin",
    "public_transport": "stop_position",
    "ref": "5921",
    "trolleybus": "yes"
  }
},
{
  "type": "node",
  "id": 481950987,
  "lat": 51.2464857,
  "lon": 22.5240335,
  "tags": {
    "bus": "yes",
    "name": "Kampus Zachodni UMCS 01",
    "network": "Lublin",
    "operator": "ZDiTM Lublin",
    "public_transport": "stop_position",
    "ref": "5221"
  }
},
{
  "type": "node",
  "id": 481951150,
  "lat": 51.2305572,
  "lon": 22.5932568,
  "tags": {
    "bus": "yes",
    "name": "Dulęby 02",
    "network": "Lublin",
    "operator": "ZDiTM Lublin",
    "public_transport": "stop_position",
    "ref": "3132",
    "trolleybus": "yes"
  }
},
{
  "type": "node",
  "id": 481951219,
  "lat": 51.2148633,
  "lon": 22.6367253,
  "tags": {
    "bus": "yes",
    "name": "Felin Kalinówka 02",
    "network": "Lublin",
    "operator": "ZDiTM Lublin",
    "public_transport": "stop_position",
    "ref": "3392"
  }
},
{
  "type": "node",
  "id": 481951393,
  "lat": 51.2249896,
  "lon": 22.5862148,
  "tags": {
    "bus": "yes",
    "name": "Wilcza 01",
    "network": "Lublin",
    "operator": "ZDiTM Lublin",
    "public_transport": "stop_position",
    "ref": "3311"
  }
},
{
  "type": "node",
  "id": 481951458,
  "lat": 51.1998941,
  "lon": 22.5419679,
  "tags": {
    "bus": "yes",
    "name": "Biskupa Fulmana 01",
    "network": "Lublin",
    "operator": "ZDiTM Lublin",
    "public_transport": "stop_position",
    "ref": "4581",
    "trolleybus": "yes"
  }
},
{
  "type": "node",
  "id": 481951704,
  "lat": 51.2064184,
  "lon": 22.5421095,
  "tags": {
    "bus": "yes",
    "name": "Romera 02",
    "network": "Lublin",
    "operator": "ZDiTM Lublin",
    "public_transport": "stop_position",
    "ref": "4572",
    "trolleybus": "yes"
  }
},
{
  "type": "node",
  "id": 644884072,
  "lat": 51.2472486,
  "lon": 22.5059387,
  "tags": {
    "bench": "yes",
    "bin": "yes",
    "bus": "yes",
    "departures_board": "timetable",
    "highway": "bus_stop",
    "name": "Bohaterów M. Cassino 01",
    "network": "Lublin",
    "operator": "ZDiTM Lublin",
    "public_transport": "platform",
    "ref": "6111",
    "request_stop": "no",
    "shelter": "yes"
  }
},
{
  "type": "node",
  "id": 651128204,
  "lat": 51.2790018,
  "lon": 22.6600998,
  "tags": {
    "bus": "yes",
    "name": "Turka 02",
    "network": "Lublin",
    "operator": "ZDiTM Lublin",
    "public_transport": "stop_position",
    "ref": "7632"
  }
},
{
  "type": "node",
  "id": 694151039,
  "lat": 51.2751359,
  "lon": 22.5044833,
  "tags": {
    "bench": "yes",
    "bin": "yes",
    "bus": "yes",
    "departures_board": "timetable",
    "highway": "bus_stop",
    "lit": "yes",
    "name": "Zbożowa 02",
    "network": "Lublin",
    "operator": "ZDiTM Lublin",
    "public_transport": "platform",
    "ref": "6422",
    "request_stop": "no",
    "shelter": "yes",
    "tactile_paving": "yes"
  }
},
{
  "type": "node",
  "id": 747445304,
  "lat": 51.2507818,
  "lon": 22.5764720,
  "tags": {
    "bus": "yes",
    "name": "Rondo Dmowskiego 03",
    "network": "Lublin",
    "operator": "ZDiTM Lublin",
    "public_transport": "stop_position",
    "ref": "1953"
  }
},
{
  "type": "node",
  "id": 774614553,
  "lat": 51.2258837,
  "lon": 22.5371561,
  "tags": {
    "bench": "yes",
    "bin": "yes",
    "bus": "yes",
    "check_date:bench": "2022-08-02",
    "covered": "no",
    "departures_board": "timetable",
    "highway": "bus_stop",
    "name": "Os. Skarpa 01",
    "network": "Lublin",
    "operator": "ZDiTM Lublin",
    "public_transport": "platform",
    "ref": "5131",
    "request_stop": "no",
    "shelter": "yes",
    "trolleybus": "yes"
  }
},
{
  "type": "node",
  "id": 774615589,
  "lat": 51.2258012,
  "lon": 22.5375563,
  "tags": {
    "bench": "yes",
    "bin": "yes",
    "bus": "yes",
    "check_date:bench": "2022-08-02",
    "covered": "no",
    "departures_board": "timetable",
    "highway": "bus_stop",
    "name": "Os. Skarpa 02",
    "network": "Lublin",
    "operator": "ZDiTM Lublin",
    "public_transport": "platform",
    "ref": "5132",
    "request_stop": "no",
    "shelter": "yes",
    "tactile_paving": "no",
    "trolleybus": "yes"
  }
},
{
  "type": "node",
  "id": 775748621,
  "lat": 51.1876135,
  "lon": 22.5966783,
  "tags": {
    "bus": "yes",
    "name": "Dominowska NŻ 02",
    "network": "Lublin",
    "operator": "ZDiTM Lublin",
    "public_transport": "stop_position",
    "ref": "3572"
  }
},
{
  "type": "node",
  "id": 778656844,
  "lat": 51.2486049,
  "lon": 22.5427478,
  "tags": {
    "bench": "yes",
    "bin": "yes",
    "bus": "yes",
    "covered": "no",
    "departures_board": "realtime",
    "highway": "bus_stop",
    "lit": "yes",
    "name": "KUL 02",
    "network": "Lublin",
    "operator": "ZDiTM Lublin",
    "public_transport": "platform",
    "ref": "5902",
    "request_stop": "no",
    "shelter": "yes",
    "tactile_paving": "yes",
    "trolleybus": "yes",
    "wheelchair": "yes"
  }
},
{
  "type": "node",
  "id": 784012834,
  "lat": 51.2516459,
  "lon": 22.5709924,
  "tags": {
    "bench": "yes",
    "bin": "yes",
    "bus": "yes",
    "covered": "no",
    "departures_board": "realtime",
    "highway": "bus_stop",
    "lit": "yes",
    "local_ref": "Dworzec Gł.PKS 02",
    "name": "Muzeum Narodowe - Zamek 02",
    "network": "Lublin",
    "operator": "ZDiTM Lublin",
    "public_transport": "platform",
    "ref": "1902",
    "request_stop": "no",
    "shelter": "yes",
    "tactile_paving": "yes",
    "trolleybus": "yes"
  }
},
{
  "type": "node",
  "id": 784012856,
  "lat": 51.2535186,
  "lon": 22.5941346,
  "tags": {
    "bench": "yes",
    "bin": "yes",
    "bus": "yes",
    "covered": "no",
    "departures_board": "timetable",
    "highway": "bus_stop",
    "lit": "yes",
    "name": "Kalinowszczyzna 02",
    "network": "Lublin",
    "operator": "ZDiTM Lublin",
    "public_transport": "platform",
    "ref": "2512",
    "request_stop": "no",
    "shelter": "yes",
    "tactile_paving": "yes",
    "trolleybus": "yes"
  }
},
{
  "type": "node",
  "id": 806483466,
  "lat": 51.2341726,
  "lon": 22.4900720,
  "tags": {
    "bus": "yes",
    "name": "Rzemieślnicza 03",
    "network": "Lublin",
    "operator": "ZDiTM Lublin",
    "public_transport": "stop_position",
    "ref": "5753",
    "trolleybus": "yes"
  }
},
{
  "type": "node",
  "id": 806485934,
  "lat": 51.2299992,
  "lon": 22.4803900,
  "tags": {
    "bus": "yes",
    "name": "Węglin 03",
    "network": "Lublin",
    "operator": "ZDiTM Lublin",
    "public_transport": "stop_position",
    "ref": "5763",
    "trolleybus": "yes"
  }
},
{
  "type": "node",
  "id": 807736309,
  "lat": 51.2407316,
  "lon": 22.5206784,
  "tags": {
    "bench": "yes",
    "bin": "yes",
    "bus": "yes",
    "covered": "no",
    "departures_board": "timetable",
    "highway": "bus_stop",
    "kerb": "raised",
    "kerb:approach_aid": "yes",
    "lit": "no",
    "name": "Zana Leclerc 03",
    "network": "Lublin",
    "operator": "ZDiTM Lublin",
    "passenger_information_display": "yes",
    "passenger_information_display:speech_output": "no",
    "public_transport": "platform",
    "ref": "5443",
    "request_stop": "no",
    "shelter": "yes",
    "tactile_paving": "no",
    "trolleybus": "yes"
  }
},
{
  "type": "node",
  "id": 807736314,
  "lat": 51.2411980,
  "lon": 22.5199710,
  "tags": {
    "bench": "no",
    "bin": "yes",
    "departures_board": "timetable",
    "highway": "bus_stop",
    "kerb": "raised",
    "kerb:approach_aid": "no",
    "lit": "no",
    "name": "Zana Leclerc 02",
    "network": "Lublin",
    "operator": "ZDiTM Lublin",
    "passenger_information_display": "no",
    "public_transport": "platform",
    "ref": "5442",
    "request_stop": "no",
    "shelter": "no",
    "tactile_paving": "no",
    "trolleybus": "yes"
  }
},
{
  "type": "node",
  "id": 807747067,
  "lat": 51.2395058,
  "lon": 22.5126900,
  "tags": {
    "bench": "yes",
    "bin": "yes",
    "bus": "yes",
    "check_date:shelter": "2022-11-13",
    "departures_board": "timetable",
    "highway": "bus_stop",
    "name": "Skrzetuskiego 01",
    "network": "Lublin",
    "operator": "ZDiTM Lublin",
    "public_transport": "platform",
    "ref": "5511",
    "request_stop": "no",
    "shelter": "yes",
    "tactile_paving": "yes",
    "trolleybus": "yes"
  }
},
{
  "type": "node",
  "id": 807747073,
  "lat": 51.2393268,
  "lon": 22.4992969,
  "tags": {
    "bench": "yes",
    "bin": "yes",
    "bus": "yes",
    "departures_board": "timetable",
    "highway": "bus_stop",
    "lit": "yes",
    "name": "Szpital Wojewódzki 01",
    "network": "Lublin",
    "operator": "ZDiTM Lublin",
    "public_transport": "platform",
    "ref": "5731",
    "request_stop": "no",
    "shelter": "yes",
    "tactile_paving": "no",
    "trolleybus": "yes"
  }
},
{
  "type": "node",
  "id": 809902733,
  "lat": 51.2477193,
  "lon": 22.5501037,
  "tags": {
    "bench": "yes",
    "bin": "yes",
    "bus": "yes",
    "covered": "no",
    "departures_board": "realtime",
    "highway": "bus_stop",
    "kerb": "raised",
    "kerb:approach_aid": "no",
    "lit": "yes",
    "name": "Ogród Saski 03",
    "network": "Lublin",
    "operator": "ZDiTM Lublin",
    "passenger_information_display": "yes",
    "passenger_information_display:speech_output": "no",
    "public_transport": "platform",
    "ref": "1003",
    "request_stop": "no",
    "shelter": "yes",
    "source_ref": "https://ztm.lublin.eu/pl/rozklady/przystanki/",
    "tactile_paving": "yes",
    "trolleybus": "yes"
  }
},
{
  "type": "node",
  "id": 812382945,
  "lat": 51.2395754,
  "lon": 22.5146526,
  "tags": {
    "bench": "yes",
    "bin": "yes",
    "bus": "yes",
    "covered": "yes",
    "departures_board": "realtime",
    "highway": "bus_stop",
    "lit": "yes",
    "name": "Skrzetuskiego 02",
    "network": "Lublin",
    "operator": "ZDiTM Lublin",
    "public_transport": "platform",
    "ref": "5512",
    "request_stop": "no",
    "shelter": "yes",
    "tactile_paving": "yes",
    "trolleybus": "yes"
  }
},
{
  "type": "node",
  "id": 812390091,
  "lat": 51.2433936,
  "lon": 22.5216042,
  "tags": {
    "bench": "yes",
    "bin": "yes",
    "bus": "yes",
    "covered": "no",
    "departures_board": "realtime",
    "departures_board:speech_output": "no",
    "highway": "bus_stop",
    "kerb": "raised",
    "kerb:approach_aid": "no",
    "lit": "no",
    "name": "Os. Słowackiego 02",
    "network": "Lublin",
    "operator": "ZDiTM Lublin",
    "passenger_information_display": "yes",
    "passenger_information_display:speech_output": "no",
    "public_transport": "platform",
    "ref": "5502",
    "request_stop": "no",
    "shelter": "yes",
    "tactile_paving": "yes",
    "trolleybus": "yes"
  }
},
{
  "type": "node",
  "id": 812390096,
  "lat": 51.2449099,
  "lon": 22.5395939,
  "tags": {
    "bench": "yes",
    "bin": "yes",
    "bus": "yes",
    "departures_board": "timetable",
    "highway": "bus_stop",
    "name": "UMCS 02",
    "network": "Lublin",
    "operator": "ZDiTM Lublin",
    "public_transport": "platform",
    "ref": "5292",
    "request_stop": "no",
    "shelter": "yes",
    "trolleybus": "yes"
  }
},
{
  "type": "node",
  "id": 812390101,
  "lat": 51.2475713,
  "lon": 22.5527985,
  "tags": {
    "bench": "yes",
    "bin": "yes",
    "bus": "yes",
    "covered": "no",
    "highway": "bus_stop",
    "lit": "no",
    "name": "Krakowskie Przedmieście 02",
    "network": "Lublin",
    "operator": "ZDiTM Lublin",
    "public_transport": "platform",
    "ref": "1012",
    "request_stop": "no",
    "shelter": "no",
    "source_ref": "https://ztm.lublin.eu/pl/rozklady/przystanki/",
    "tactile_paving": "no"
  }
},
{
  "type": "node",
  "id": 812390103,
  "lat": 51.2476122,
  "lon": 22.5538224,
  "tags": {
    "bench": "yes",
    "bin": "yes",
    "bus": "yes",
    "covered": "no",
    "highway": "bus_stop",
    "lit": "yes",
    "name": "Krakowskie Przedmieście 04",
    "network": "Lublin",
    "operator": "ZDiTM Lublin",
    "public_transport": "platform",
    "ref": "1014",
    "request_stop": "no",
    "shelter": "yes",
    "source_ref": "https://ztm.lublin.eu/pl/rozklady/przystanki/",
    "tactile_paving": "no",
    "trolleybus": "yes"
  }
},
{
  "type": "node",
  "id": 815269539,
  "lat": 51.2472001,
  "lon": 22.5514453,
  "tags": {
    "bench": "yes",
    "bin": "yes",
    "bus": "yes",
    "covered": "no",
    "departures_board": "realtime",
    "highway": "bus_stop",
    "lit": "yes",
    "name": "Ogród Saski 01",
    "network": "Lublin",
    "operator": "ZDiTM Lublin",
    "public_transport": "platform",
    "ref": "1001",
    "request_stop": "no",
    "shelter": "yes",
    "source_ref": "https://ztm.lublin.eu/pl/rozklady/przystanki/",
    "tactile_paving": "yes",
    "trolleybus": "yes"
  }
},
{
  "type": "node",
  "id": 815269546,
  "lat": 51.2439260,
  "lon": 22.5524942,
  "tags": {
    "bench": "yes",
    "bin": "yes",
    "bus": "yes",
    "covered": "no",
    "departures_board": "realtime",
    "highway": "bus_stop",
    "lit": "yes",
    "name": "Lipowa - cmentarz 01",
    "network": "Lublin",
    "operator": "ZDiTM Lublin",
    "public_transport": "platform",
    "ref": "1071",
    "request_stop": "no",
    "shelter": "yes",
    "source_ref": "https://ztm.lublin.eu/pl/rozklady/przystanki/",
    "tactile_paving": "yes",
    "trolleybus": "yes"
  }
},
{
  "type": "node",
  "id": 815269566,
  "lat": 51.2396587,
  "lon": 22.5527041,
  "tags": {
    "bench": "yes",
    "bin": "yes",
    "bus": "yes",
    "covered": "no",
    "departures_board": "realtime",
    "highway": "bus_stop",
    "lit": "yes",
    "name": "Muzyczna 01",
    "network": "Lublin",
    "operator": "ZDiTM Lublin",
    "public_transport": "platform",
    "ref": "5101",
    "request_stop": "no",
    "shelter": "no",
    "source_ref": "https://ztm.lublin.eu/pl/rozklady/przystanki/page/35",
    "tactile_paving": "yes"
  }
},
{
  "type": "node",
  "id": 829291007,
  "lat": 51.2030294,
  "lon": 22.5955132,
  "tags": {
    "bench": "no",
    "bus": "yes",
    "departures_board": "timetable",
    "highway": "bus_stop",
    "name": "Zorza NŻ 03",
    "network": "Lublin",
    "operator": "ZDiTM Lublin",
    "public_transport": "platform",
    "ref": "3503",
    "request_stop": "yes",
    "shelter": "no",
    "source": "user wfl",
    "tactile_paving": "no"
  }
},
{
  "type": "node",
  "id": 829291179,
  "lat": 51.2114920,
  "lon": 22.6462508,
  "tags": {
    "bench": "yes",
    "bus": "yes",
    "departures_board": "timetable",
    "highway": "bus_stop",
    "name": "Kalinówka - stacja paliw NŻ 02",
    "network": "Lublin",
    "operator": "ZDiTM Lublin",
    "public_transport": "platform",
    "ref": "7832",
    "request_stop": "yes",
    "shelter": "yes",
    "tactile_paving": "no"
  }
},
{
  "type": "node",
  "id": 829291420,
  "lat": 51.2108012,
  "lon": 22.6477213,
  "tags": {
    "bench": "yes",
    "bus": "yes",
    "departures_board": "timetable",
    "highway": "bus_stop",
    "name": "Kalinówka - stacja paliw NŻ 01",
    "network": "Lublin",
    "operator": "ZDiTM Lublin",
    "public_transport": "platform",
    "ref": "7831",
    "request_stop": "yes",
    "shelter": "yes",
    "tactile_paving": "no"
  }
},
{
  "type": "node",
  "id": 829291473,
  "lat": 51.2036103,
  "lon": 22.5952026,
  "tags": {
    "bench": "yes",
    "bus": "yes",
    "departures_board": "timetable",
    "highway": "bus_stop",
    "name": "Zorza NŻ 02",
    "network": "Lublin",
    "operator": "ZDiTM Lublin",
    "public_transport": "platform",
    "ref": "3502",
    "request_stop": "yes",
    "shelter": "yes",
    "source": "user wfl"
  }
},
{
  "type": "node",
  "id": 833160671,
  "lat": 51.2388770,
  "lon": 22.5256678,
  "tags": {
    "bench": "yes",
    "bin": "yes",
    "bus": "yes",
    "covered": "no",
    "departures_board": "timetable",
    "highway": "bus_stop",
    "lit": "yes",
    "name": "Jana Sawy 01",
    "network": "Lublin",
    "operator": "ZDiTM Lublin",
    "public_transport": "platform",
    "ref": "5431",
    "request_stop": "no",
    "shelter": "yes",
    "tactile_paving": "no",
    "trolleybus": "yes"
  }
},
{
  "type": "node",
  "id": 833182748,
  "lat": 51.2405934,
  "lon": 22.5176737,
  "tags": {
    "bench": "yes",
    "bin": "yes",
    "bus": "yes",
    "covered": "no",
    "departures_board": "realtime",
    "highway": "bus_stop",
    "kerb": "no",
    "lit": "yes",
    "name": "Zana Leclerc 01",
    "network": "Lublin",
    "operator": "ZDiTM Lublin",
    "passenger_information_display": "yes",
    "passenger_information_display:speech_output": "no",
    "public_transport": "platform",
    "ref": "5441",
    "request_stop": "no",
    "shelter": "yes",
    "tactile_paving": "yes",
    "trolleybus": "yes"
  }
},
{
  "type": "node",
  "id": 836158636,
  "lat": 51.2504382,
  "lon": 22.5239289,
  "tags": {
    "bench": "yes",
    "bin": "yes",
    "bus": "yes",
    "covered": "no",
    "departures_board": "realtime",
    "highway": "bus_stop",
    "lit": "yes",
    "name": "Rondo Krwiodawców 03",
    "network": "Lublin",
    "operator": "ZDiTM Lublin",
    "public_transport": "platform",
    "ref": "5933",
    "request_stop": "no",
    "shelter": "yes",
    "tactile_paving": "no",
    "trolleybus": "yes"
  }
},
{
  "type": "node",
  "id": 836158656,
  "lat": 51.2514280,
  "lon": 22.5697062,
  "tags": {
    "bench": "yes",
    "bin": "yes",
    "bus": "yes",
    "covered": "no",
    "departures_board": "realtime",
    "highway": "bus_stop",
    "lit": "yes",
    "name": "Muzeum Narodowe - Zamek 01",
    "network": "Lublin",
    "operator": "ZDiTM Lublin",
    "public_transport": "platform",
    "ref": "1901",
    "request_stop": "no",
    "shelter": "yes",
    "tactile_paving": "no",
    "trolleybus": "yes"
  }
},
{
  "type": "node",
  "id": 836158662,
  "lat": 51.2593712,
  "lon": 22.5306643,
  "tags": {
    "bench": "no",
    "bus": "yes",
    "departures_board": "timetable",
    "highway": "bus_stop",
    "lit": "yes",
    "name": "Sikorskiego NŻ 05",
    "network": "Lublin",
    "operator": "ZDiTM Lublin",
    "public_transport": "platform",
    "ref": "6715",
    "request_stop": "yes",
    "shelter": "no",
    "tactile_paving": "yes"
  }
},
{
  "type": "node",
  "id": 836158674,
  "lat": 51.2484120,
  "lon": 22.5582031,
  "tags": {
    "bench": "yes",
    "bin": "yes",
    "bus": "yes",
    "covered": "no",
    "highway": "bus_stop",
    "lit": "yes",
    "name": "Plac Litewski 02",
    "network": "Lublin",
    "operator": "ZDiTM Lublin",
    "public_transport": "platform",
    "ref": "1022",
    "request_stop": "no",
    "shelter": "yes",
    "tactile_paving": "no",
    "trolleybus": "yes"
  }
},
{
  "type": "node",
  "id": 836158698,
  "lat": 51.2491729,
  "lon": 22.5408495,
  "tags": {
    "bench": "yes",
    "bin": "yes",
    "bus": "yes",
    "covered": "no",
    "departures_board": "realtime",
    "highway": "bus_stop",
    "lit": "yes",
    "name": "KUL 03",
    "network": "Lublin",
    "operator": "ZDiTM Lublin",
    "public_transport": "platform",
    "ref": "5903",
    "request_stop": "no",
    "shelter": "yes",
    "tactile_paving": "yes",
    "trolleybus": "yes"
  }
},
{
  "type": "node",
  "id": 836158712,
  "lat": 51.2520453,
  "lon": 22.5264267,
  "tags": {
    "bench": "yes",
    "bin": "yes",
    "bus": "yes",
    "highway": "bus_stop",
    "lit": "yes",
    "name": "Rondo Krwiodawców 01",
    "network": "Lublin",
    "operator": "ZDiTM Lublin",
    "public_transport": "platform",
    "ref": "5931",
    "request_stop": "no",
    "shelter": "yes",
    "tactile_paving": "yes"
  }
},
{
  "type": "node",
  "id": 836158719,
  "lat": 51.2530479,
  "lon": 22.5545231,
  "tags": {
    "bench": "yes",
    "bin": "yes",
    "bus": "yes",
    "departures_board": "timetable",
    "highway": "bus_stop",
    "lit": "yes",
    "name": "Lubomelska 02",
    "network": "Lublin",
    "operator": "ZDiTM Lublin",
    "public_transport": "platform",
    "ref": "1242",
    "request_stop": "no",
    "shelter": "yes",
    "tactile_paving": "no"
  }
},
{
  "type": "node",
  "id": 836158721,
  "lat": 51.2313964,
  "lon": 22.4827673,
  "tags": {
    "bench": "yes",
    "bin": "yes",
    "bus": "yes",
    "covered": "no",
    "departures_board": "timetable",
    "highway": "bus_stop",
    "lit": "yes",
    "name": "Węglin 02",
    "network": "Lublin",
    "operator": "ZDiTM Lublin",
    "public_transport": "platform",
    "ref": "5762",
    "request_stop": "no",
    "shelter": "yes",
    "tactile_paving": "no",
    "trolleybus": "yes"
  }
},
{
  "type": "node",
  "id": 836158737,
  "lat": 51.2466471,
  "lon": 22.5665831,
  "tags": {
    "bench": "yes",
    "bin": "yes",
    "bus": "yes",
    "departures_board": "realtime",
    "highway": "bus_stop",
    "lit": "yes",
    "name": "Brama Krakowska 02",
    "network": "Lublin",
    "operator": "ZDiTM Lublin",
    "public_transport": "platform",
    "ref": "1032",
    "request_stop": "no",
    "shelter": "yes",
    "tactile_paving": "no",
    "trolleybus": "no"
  }
},
{
  "type": "node",
  "id": 836158746,
  "lat": 51.2580289,
  "lon": 22.5316103,
  "tags": {
    "bench": "yes",
    "bin": "yes",
    "bus": "yes",
    "departures_board": "timetable",
    "highway": "bus_stop",
    "lit": "yes",
    "name": "Sikorskiego NŻ 02",
    "network": "Lublin",
    "operator": "ZDiTM Lublin",
    "public_transport": "platform",
    "ref": "6712",
    "request_stop": "yes",
    "shelter": "yes",
    "tactile_paving": "yes"
  }
},
{
  "type": "node",
  "id": 836158754,
  "lat": 51.2499175,
  "lon": 22.5425469,
  "tags": {
    "bench": "yes",
    "bus": "yes",
    "departures_board": "realtime",
    "highway": "bus_stop",
    "name": "KUL 01",
    "network": "Lublin",
    "operator": "ZDiTM Lublin",
    "public_transport": "platform",
    "ref": "5901",
    "request_stop": "no",
    "shelter": "yes"
  }
},
{
  "type": "node",
  "id": 836158763,
  "lat": 51.2504120,
  "lon": 22.5110511,
  "tags": {
    "bench": "yes",
    "bin": "yes",
    "bus": "yes",
    "departures_board": "timetable",
    "highway": "bus_stop",
    "name": "Cisowa 02",
    "network": "Lublin",
    "operator": "ZDiTM Lublin",
    "public_transport": "platform",
    "ref": "6312",
    "request_stop": "no",
    "shelter": "yes"
  }
},
{
  "type": "node",
  "id": 836158768,
  "lat": 51.2442450,
  "lon": 22.5323067,
  "tags": {
    "bench": "yes",
    "bin": "yes",
    "bus": "yes",
    "covered": "no",
    "departures_board": "timetable",
    "highway": "bus_stop",
    "lit": "no",
    "name": "Pana Tadeusza 02",
    "network": "Lublin",
    "operator": "ZDiTM Lublin",
    "public_transport": "platform",
    "ref": "5212",
    "request_stop": "no",
    "shelter": "yes",
    "tactile_paving": "no",
    "trolleybus": "yes"
  }
},
{
  "type": "node",
  "id": 838772887,
  "lat": 51.2008758,
  "lon": 22.5425743,
  "tags": {
    "bench": "yes",
    "bus": "yes",
    "covered": "no",
    "departures_board": "timetable",
    "designation": "4582",
    "highway": "bus_stop",
    "local_ref": "4582",
    "name": "Biskupa Fulmana 02",
    "network": "Lublin",
    "operator": "ZDiTM Lublin",
    "public_transport": "platform",
    "ref": "4582",
    "request_stop": "no",
    "shelter": "yes",
    "source": "user wfl",
    "tactile_paving": "no",
    "trolleybus": "yes",
    "url": "http://mpk.lublin.pl/?przy=4582"
  }
},
{
  "type": "node",
  "id": 838772888,
  "lat": 51.2185836,
  "lon": 22.5370956,
  "tags": {
    "bench": "yes",
    "bin": "yes",
    "bus": "yes",
    "departures_board": "timetable",
    "highway": "bus_stop",
    "name": "Koło NŻ 02",
    "network": "Lublin",
    "operator": "ZDiTM Lublin",
    "public_transport": "platform",
    "ref": "4752",
    "request_stop": "yes",
    "shelter": "no",
    "source": "user wfl"
  }
},
{
  "type": "node",
  "id": 838772889,
  "lat": 51.1930180,
  "lon": 22.5270500,
  "tags": {
    "bench": "yes",
    "bin": "yes",
    "bus": "yes",
    "departures_board": "timetable",
    "highway": "bus_stop",
    "name": "Krężnicka - kemping NŻ 02",
    "network": "Lublin",
    "operator": "ZDiTM Lublin",
    "public_transport": "platform",
    "ref": "4802",
    "request_stop": "yes",
    "shelter": "no",
    "source": "user wfl"
  }
},
{
  "type": "node",
  "id": 838772894,
  "lat": 51.1591171,
  "lon": 22.4855565,
  "tags": {
    "bench": "no",
    "bus": "yes",
    "departures_board": "timetable",
    "highway": "bus_stop",
    "name": "Ptasia NŻ 01",
    "network": "Lublin",
    "on_demand": "yes",
    "operator": "ZDiTM Lublin",
    "public_transport": "platform",
    "ref": "4911",
    "shelter": "no"
  }
},
{
  "type": "node",
  "id": 838772901,
  "lat": 51.1816987,
  "lon": 22.5422920,
  "tags": {
    "bus": "yes",
    "highway": "bus_stop",
    "name": "Dąbrowa 02",
    "operator": "ZDiTM Lublin",
    "public_transport": "platform",
    "ref": "4322"
  }
},
{
  "type": "node",
  "id": 838772905,
  "lat": 51.1663772,
  "lon": 22.4952283,
  "tags": {
    "bench": "yes",
    "bus": "yes",
    "departures_board": "timetable",
    "highway": "bus_stop",
    "name": "Krężnicka - przejazd NŻ 02",
    "network": "Lublin",
    "operator": "ZDiTM Lublin",
    "public_transport": "platform",
    "ref": "4902",
    "request_stop": "yes",
    "shelter": "yes",
    "source": "user wfl"
  }
},
{
  "type": "node",
  "id": 838772909,
  "lat": 51.2108065,
  "lon": 22.5422080,
  "tags": {
    "bench": "yes",
    "bus": "yes",
    "covered": "no",
    "departures_board": "timetable",
    "highway": "bus_stop",
    "name": "Os. Nałkowskich 02",
    "network": "Lublin",
    "operator": "ZDiTM Lublin",
    "public_transport": "platform",
    "ref": "4562",
    "request_stop": "no",
    "shelter": "yes",
    "tactile_paving": "no",
    "trolleybus": "yes"
  }
},
{
  "type": "node",
  "id": 838772912,
  "lat": 51.2100391,
  "lon": 22.5416788,
  "tags": {
    "bench": "no",
    "bus": "yes",
    "departures_board": "timetable",
    "highway": "bus_stop",
    "name": "Os. Nałkowskich 01",
    "network": "Lublin",
    "operator": "ZDiTM Lublin",
    "public_transport": "platform",
    "ref": "4561",
    "request_stop": "no",
    "shelter": "no",
    "trolleybus": "yes"
  }
},
{
  "type": "node",
  "id": 838772914,
  "lat": 51.2260341,
  "lon": 22.4911926,
  "tags": {
    "bench": "yes",
    "bin": "yes",
    "bus": "yes",
    "departures_board": "timetable",
    "highway": "bus_stop",
    "lit": "no",
    "name": "Roztocze 01",
    "network": "Lublin",
    "operator": "ZDiTM Lublin",
    "public_transport": "platform",
    "ref": "5571",
    "request_stop": "no",
    "shelter": "no",
    "source": "user wfl",
    "tactile_paving": "no",
    "trolleybus": "yes"
  }
},
{
  "type": "node",
  "id": 838772919,
  "lat": 51.1448632,
  "lon": 22.4620189,
  "tags": {
    "bench": "yes",
    "bus": "yes",
    "departures_board": "timetable",
    "highway": "bus_stop",
    "name": "Krężnica Jara 02",
    "network": "Lublin",
    "operator": "ZDiTM Lublin",
    "public_transport": "platform",
    "ref": "8522",
    "request_stop": "no",
    "shelter": "yes",
    "source": "user wfl"
  }
},
{
  "type": "node",
  "id": 838772920,
  "lat": 51.2360453,
  "lon": 22.5358278,
  "tags": {
    "bench": "yes",
    "bin": "yes",
    "bus": "yes",
    "covered": "no",
    "departures_board": "timetable",
    "highway": "bus_stop",
    "name": "Brzeskiej 01",
    "network": "Lublin",
    "operator": "ZDiTM Lublin",
    "public_transport": "platform",
    "ref": "5401",
    "request_stop": "no",
    "shelter": "yes",
    "source": "user wfl",
    "tactile_paving": "no",
    "trolleybus": "yes"
  }
},
{
  "type": "node",
  "id": 838772921,
  "lat": 51.1409295,
  "lon": 22.5039638,
  "tags": {
    "bench": "yes",
    "bin": "yes",
    "bus": "yes",
    "covered": "no",
    "departures_board": "realtime",
    "highway": "bus_stop",
    "name": "Prawiedniki 02",
    "network": "Lublin",
    "operator": "ZDiTM Lublin",
    "public_transport": "platform",
    "ref": "4992",
    "request_stop": "no",
    "shelter": "yes",
    "source": "user wfl",
    "tactile_paving": "yes"
  }
},
{
  "type": "node",
  "id": 838772923,
  "lat": 51.2307634,
  "lon": 22.5277693,
  "tags": {
    "bench": "yes",
    "bin": "yes",
    "bus": "yes",
    "check_date:bench": "2022-08-02",
    "covered": "no",
    "departures_board": "timetable",
    "highway": "bus_stop",
    "name": "Sympatyczna 02",
    "network": "Lublin",
    "operator": "ZDiTM Lublin",
    "public_transport": "platform",
    "ref": "5332",
    "request_stop": "no",
    "shelter": "yes",
    "source": "user wfl",
    "tactile_paving": "no",
    "trolleybus": "yes"
  }
},
{
  "type": "node",
  "id": 838772924,
  "lat": 51.1815517,
  "lon": 22.4972660,
  "tags": {
    "bench": "no",
    "bin": "no",
    "bus": "yes",
    "departures_board": "timetable",
    "description:en": "departures board for this stop is on the stop on the other side of the street",
    "description:pl": "Rozkład jazdy dla tego przystanku znajduje się na przystanku po drugiej stronie ulicy",
    "highway": "bus_stop",
    "name": "Pszczela - granica miasta NŻ 02",
    "network": "Lublin",
    "operator": "ZDiTM Lublin",
    "public_transport": "platform",
    "ref": "8822",
    "request_stop": "yes",
    "shelter": "no",
    "sign": "no"
  }
},
{
  "type": "node",
  "id": 838772926,
  "lat": 51.2212861,
  "lon": 22.4436754,
  "tags": {
    "bench": "yes",
    "bus": "yes",
    "covered": "no",
    "departures_board": "timetable",
    "highway": "bus_stop",
    "name": "Konopnica - szkoła 02",
    "network": "Lublin",
    "operator": "ZDiTM Lublin",
    "public_transport": "platform",
    "ref": "8902",
    "request_stop": "no",
    "shelter": "yes",
    "source": "user wfl"
  }
},
{
  "type": "node",
  "id": 838772927,
  "lat": 51.1860610,
  "lon": 22.4899015,
  "tags": {
    "bench": "yes",
    "bin": "yes",
    "bus": "yes",
    "departures_board": "timetable",
    "highway": "bus_stop",
    "image": "https://photos.app.goo.gl/ozKi4X6PLmq3Bh8a6",
    "name": "Zemborzyce Podleśne - skrzyżowanie NŻ 02",
    "network": "Lublin",
    "operator": "ZDiTM Lublin",
    "public_transport": "platform",
    "ref": "8832",
    "request_stop": "yes",
    "shelter": "yes"
  }
},
{
  "type": "node",
  "id": 838772928,
  "lat": 51.1659650,
  "lon": 22.4941878,
  "tags": {
    "bench": "no",
    "bus": "yes",
    "departures_board": "timetable",
    "highway": "bus_stop",
    "name": "Krężnicka - przejazd NŻ 01",
    "network": "Lublin",
    "operator": "ZDiTM Lublin",
    "public_transport": "platform",
    "ref": "4901",
    "request_stop": "yes",
    "shelter": "no",
    "source": "user wfl"
  }
},
{
  "type": "node",
  "id": 838772929,
  "lat": 51.1738460,
  "lon": 22.5082889,
  "tags": {
    "bench": "no",
    "bus": "yes",
    "departures_board": "timetable",
    "highway": "bus_stop",
    "name": "Zemborzyce - kościół 03",
    "network": "Lublin",
    "operator": "ZDiTM Lublin",
    "public_transport": "platform",
    "ref": "4983",
    "request_stop": "no",
    "shelter": "no"
  }
},
{
  "type": "node",
  "id": 838772932,
  "lat": 51.1773127,
  "lon": 22.5158316,
  "tags": {
    "bus": "yes",
    "departures_board": "timetable",
    "highway": "bus_stop",
    "name": "Hotel Pod Kasztanami NŻ 01",
    "network": "Lublin",
    "operator": "ZDiTM Lublin",
    "public_transport": "platform",
    "ref": "4831",
    "request_stop": "yes",
    "shelter": "no",
    "source": "user wfl"
  }
},
{
  "type": "node",
  "id": 838772934,
  "lat": 51.2347643,
  "lon": 22.5290514,
  "tags": {
    "bench": "yes",
    "bin": "yes",
    "bus": "yes",
    "departures_board": "timetable",
    "highway": "bus_stop",
    "lit": "no",
    "name": "Rzeckiego 01",
    "network": "Lublin",
    "operator": "ZDiTM Lublin",
    "public_transport": "platform",
    "ref": "5321",
    "request_stop": "no",
    "shelter": "yes",
    "tactile_paving": "no",
    "trolleybus": "yes"
  }
},
{
  "type": "node",
  "id": 838772936,
  "lat": 51.2345187,
  "lon": 22.5116492,
  "tags": {
    "bench": "yes",
    "bin": "yes",
    "bus": "yes",
    "covered": "no",
    "departures_board": "timetable",
    "highway": "bus_stop",
    "name": "Dziewanny 02",
    "network": "Lublin",
    "operator": "ZDiTM Lublin",
    "public_transport": "platform",
    "ref": "5522",
    "request_stop": "no",
    "shelter": "yes",
    "source": "user wfl",
    "tactile_paving": "yes",
    "trolleybus": "yes"
  }
},
{
  "type": "node",
  "id": 838772938,
  "lat": 51.2184369,
  "lon": 22.4579732,
  "tags": {
    "bench": "yes",
    "bin": "yes",
    "bus": "yes",
    "covered": "no",
    "departures_board": "timetable",
    "highway": "bus_stop",
    "name": "Konopnica - kościół 01",
    "network": "Lublin",
    "operator": "ZDiTM Lublin",
    "public_transport": "platform",
    "ref": "8701",
    "request_stop": "no",
    "shelter": "yes",
    "source": "user wfl",
    "tactile_paving": "yes"
  }
},
{
  "type": "node",
  "id": 838772939,
  "lat": 51.1908888,
  "lon": 22.4512638,
  "tags": {
    "bench": "no",
    "bin": "no",
    "bus": "yes",
    "departures_board": "timetable",
    "highway": "bus_stop",
    "name": "Zemborzyce Tereszyńskie NŻ 01",
    "network": "Lublin",
    "operator": "ZDiTM Lublin",
    "public_transport": "platform",
    "ref": "8731",
    "request_stop": "yes",
    "shelter": "no"
  }
},
{
  "type": "node",
  "id": 838772940,
  "lat": 51.1956720,
  "lon": 22.4435024,
  "tags": {
    "bench": "no",
    "bus": "yes",
    "departures_board": "timetable",
    "highway": "bus_stop",
    "name": "Zemborzyce Dolne NŻ 02",
    "network": "Lublin",
    "operator": "ZDiTM Lublin",
    "public_transport": "platform",
    "ref": "8722",
    "request_stop": "yes",
    "shelter": "no"
  }
},
{
  "type": "node",
  "id": 838772943,
  "lat": 51.2181603,
  "lon": 22.5458527,
  "tags": {
    "bench": "yes",
    "bin": "yes",
    "bus": "yes",
    "covered": "no",
    "departures_board": "timetable",
    "highway": "bus_stop",
    "lit": "yes",
    "name": "Medalionów 01",
    "network": "Lublin",
    "operator": "ZDiTM Lublin",
    "public_transport": "platform",
    "ref": "4541",
    "request_stop": "no",
    "shelter": "yes",
    "source": "user wfl",
    "tactile_paving": "no",
    "trolleybus": "yes"
  }
},
{
  "type": "node",
  "id": 838772944,
  "lat": 51.1544702,
  "lon": 22.5106128,
  "tags": {
    "bench": "yes",
    "bus": "yes",
    "departures_board": "timetable",
    "highway": "bus_stop",
    "name": "Poranna NŻ 02",
    "network": "Lublin",
    "operator": "ZDiTM Lublin",
    "public_transport": "platform",
    "ref": "4882",
    "request_stop": "yes",
    "shelter": "yes"
  }
},
{
  "type": "node",
  "id": 838772945,
  "lat": 51.2344943,
  "lon": 22.4884573,
  "tags": {
    "bench": "yes",
    "bin": "yes",
    "bus": "yes",
    "departures_board": "timetable",
    "highway": "bus_stop",
    "lit": "yes",
    "name": "Rzemieślnicza 01",
    "network": "Lublin",
    "operator": "ZDiTM Lublin",
    "public_transport": "platform",
    "ref": "5751",
    "request_stop": "no",
    "shelter": "no",
    "source": "user wfl",
    "tactile_paving": "no",
    "trolleybus": "yes"
  }
},
{
  "type": "node",
  "id": 838772946,
  "lat": 51.1772460,
  "lon": 22.4739808,
  "tags": {
    "bench": "no",
    "bin": "no",
    "bus": "yes",
    "covered": "no",
    "departures_board": "timetable",
    "highway": "bus_stop",
    "name": "Zemborzyce Wojciechowskie NŻ 01",
    "network": "Lublin",
    "operator": "ZDiTM Lublin",
    "public_transport": "platform",
    "ref": "8751",
    "request_stop": "yes",
    "shelter": "no"
  }
},
{
  "type": "node",
  "id": 838772948,
  "lat": 51.2341539,
  "lon": 22.4899559,
  "tags": {
    "bench": "yes",
    "bin": "yes",
    "bus": "yes",
    "departures_board": "timetable",
    "highway": "bus_stop",
    "lit": "no",
    "name": "Rzemieślnicza 03",
    "network": "Lublin",
    "operator": "ZDiTM Lublin",
    "public_transport": "platform",
    "ref": "5753",
    "request_stop": "no",
    "shelter": "yes",
    "source": "user wfl",
    "tactile_paving": "no",
    "trolleybus": "yes"
  }
},
{
  "type": "node",
  "id": 838772950,
  "lat": 51.2326803,
  "lon": 22.4914219,
  "tags": {
    "bench": "yes",
    "bin": "yes",
    "bus": "yes",
    "check_date:shelter": "2022-11-13",
    "departures_board": "timetable",
    "highway": "bus_stop",
    "lit": "no",
    "name": "Mazowiecka 02",
    "network": "Lublin",
    "operator": "ZDiTM Lublin",
    "public_transport": "platform",
    "ref": "5812",
    "request_stop": "no",
    "shelter": "yes",
    "source": "user wfl",
    "tactile_paving": "no",
    "trolleybus": "yes"
  }
},
{
  "type": "node",
  "id": 838772951,
  "lat": 51.1919278,
  "lon": 22.4498124,
  "tags": {
    "bench": "no",
    "bus": "yes",
    "departures_board": "timetable",
    "highway": "bus_stop",
    "name": "Zemborzyce Tereszyńskie NŻ 02",
    "network": "Lublin",
    "operator": "ZDiTM Lublin",
    "public_transport": "platform",
    "ref": "8732",
    "request_stop": "yes",
    "shelter": "no"
  }
},
{
  "type": "node",
  "id": 838772952,
  "lat": 51.1998929,
  "lon": 22.5418709,
  "tags": {
    "bench": "yes",
    "bus": "yes",
    "departures_board": "timetable",
    "highway": "bus_stop",
    "name": "Biskupa Fulmana 01",
    "network": "Lublin",
    "operator": "ZDiTM Lublin",
    "public_transport": "platform",
    "ref": "4581",
    "request_stop": "no",
    "shelter": "no",
    "source": "user wfl",
    "tactile_paving": "no",
    "trolleybus": "yes"
  }
},
{
  "type": "node",
  "id": 838772954,
  "lat": 51.1557891,
  "lon": 22.4815432,
  "tags": {
    "bench": "yes",
    "bus": "yes",
    "covered": "no",
    "departures_board": "timetable",
    "highway": "bus_stop",
    "name": "Zemborzyce Górne 04",
    "network": "Lublin",
    "operator": "ZDiTM Lublin",
    "public_transport": "platform",
    "ref": "4924",
    "request_stop": "no",
    "shelter": "yes",
    "source": "user wfl"
  }
},
{
  "type": "node",
  "id": 838772956,
  "lat": 51.2353695,
  "lon": 22.5293692,
  "tags": {
    "bench": "yes",
    "bin": "yes",
    "bus": "yes",
    "check_date:bench": "2022-08-02",
    "covered": "no",
    "departures_board": "timetable",
    "highway": "bus_stop",
    "lit": "yes",
    "name": "Rzeckiego 02",
    "network": "Lublin",
    "operator": "ZDiTM Lublin",
    "public_transport": "platform",
    "ref": "5322",
    "request_stop": "no",
    "shelter": "yes",
    "tactile_paving": "no",
    "trolleybus": "yes"
  }
},
{
  "type": "node",
  "id": 838772957,
  "lat": 51.1592570,
  "lon": 22.4858528,
  "tags": {
    "bench": "yes",
    "bus": "yes",
    "departures_board": "timetable",
    "highway": "bus_stop",
    "name": "Ptasia NŻ 02",
    "network": "Lublin",
    "operator": "ZDiTM Lublin",
    "public_transport": "platform",
    "ref": "4912",
    "request_stop": "yes",
    "shelter": "yes"
  }
},
{
  "type": "node",
  "id": 838772975,
  "lat": 51.1895497,
  "lon": 22.4843744,
  "tags": {
    "bench": "no",
    "bin": "no",
    "bus": "yes",
    "departures_board": "timetable",
    "highway": "bus_stop",
    "name": "Zemborzyce Podleśne I NŻ 01",
    "network": "Lublin",
    "operator": "ZDiTM Lublin",
    "public_transport": "platform",
    "ref": "8841",
    "request_stop": "yes",
    "shelter": "no",
    "source": "user wfl"
  }
},
{
  "type": "node",
  "id": 838772981,
  "lat": 51.2323405,
  "lon": 22.5387576,
  "tags": {
    "bench": "yes",
    "bin": "yes",
    "bus": "yes",
    "check_date:bench": "2022-08-02",
    "covered": "no",
    "departures_board": "realtime",
    "highway": "bus_stop",
    "name": "Pozytywistów 02",
    "network": "Lublin",
    "operator": "ZDiTM Lublin",
    "public_transport": "platform",
    "ref": "5122",
    "request_stop": "no",
    "shelter": "yes",
    "source": "survey",
    "tactile_paving": "no",
    "trolleybus": "yes"
  }
},
{
  "type": "node",
  "id": 838772986,
  "lat": 51.2221113,
  "lon": 22.5424201,
  "tags": {
    "bench": "yes",
    "bus": "yes",
    "departures_board": "timetable",
    "highway": "bus_stop",
    "name": "Rondo Żołnierzy-Górników 02",
    "network": "Lublin",
    "operator": "ZDiTM Lublin",
    "public_transport": "platform",
    "ref": "4732",
    "request_stop": "no",
    "shelter": "yes",
    "source": "user wfl",
    "tactile_paving": "yes",
    "trolleybus": "yes"
  }
},
{
  "type": "node",
  "id": 838772998,
  "lat": 51.1526845,
  "lon": 22.4760353,
  "tags": {
    "bus": "yes",
    "departures_board": "timetable",
    "highway": "bus_stop",
    "name": "Marzanny NŻ 01",
    "network": "Lublin",
    "operator": "ZDiTM Lublin",
    "public_transport": "platform",
    "ref": "4931",
    "request_stop": "yes",
    "shelter": "yes"
  }
},
{
  "type": "node",
  "id": 838773000,
  "lat": 51.1950622,
  "lon": 22.5419270,
  "tags": {
    "bench": "yes",
    "bin": "yes",
    "bus": "yes",
    "departures_board": "timetable",
    "highway": "bus_stop",
    "name": "Żeglarska II NŻ 02",
    "network": "Lublin",
    "operator": "ZDiTM Lublin",
    "public_transport": "platform",
    "ref": "4622",
    "request_stop": "yes",
    "shelter": "yes",
    "source": "user wfl",
    "trolleybus": "yes"
  }
},
{
  "type": "node",
  "id": 838773012,
  "lat": 51.2235665,
  "lon": 22.5407038,
  "tags": {
    "bench": "yes",
    "bin": "yes",
    "bus": "yes",
    "covered": "no",
    "departures_board": "timetable",
    "highway": "bus_stop",
    "name": "Rondo Żołnierzy-Górników 01",
    "network": "Lublin",
    "operator": "ZDiTM Lublin",
    "public_transport": "platform",
    "ref": "4731",
    "request_stop": "no",
    "shelter": "yes",
    "source": "survey",
    "trolleybus": "yes"
  }
},
{
  "type": "node",
  "id": 838773021,
  "lat": 51.2350893,
  "lon": 22.4905745,
  "tags": {
    "bench": "yes",
    "bin": "yes",
    "bus": "yes",
    "covered": "no",
    "departures_board": "realtime",
    "highway": "bus_stop",
    "lit": "yes",
    "name": "Rzemieślnicza 02",
    "network": "Lublin",
    "operator": "ZDiTM Lublin",
    "public_transport": "platform",
    "ref": "5752",
    "request_stop": "no",
    "shelter": "yes",
    "source": "user wfl",
    "tactile_paving": "no",
    "trolleybus": "yes"
  }
},
{
  "type": "node",
  "id": 838773028,
  "lat": 51.1899660,
  "lon": 22.5254827,
  "tags": {
    "bus": "yes",
    "departures_board": "timetable",
    "highway": "bus_stop",
    "name": "Marina NŻ 01",
    "network": "Lublin",
    "operator": "ZDiTM Lublin",
    "public_transport": "platform",
    "ref": "4811",
    "request_stop": "yes",
    "source": "user wfl"
  }
},
{
  "type": "node",
  "id": 838773031,
  "lat": 51.1511708,
  "lon": 22.4651211,
  "tags": {
    "bench": "yes",
    "bin": "yes",
    "bus": "yes",
    "covered": "no",
    "departures_board": "timetable",
    "highway": "bus_stop",
    "name": "Krężnica Jara PKP 01",
    "network": "Lublin",
    "operator": "ZDiTM Lublin",
    "public_transport": "platform",
    "ref": "8501",
    "request_stop": "no",
    "shelter": "yes",
    "source": "user wfl"
  }
},
{
  "type": "node",
  "id": 838773036,
  "lat": 51.1742113,
  "lon": 22.5105926,
  "tags": {
    "bench": "yes",
    "bus": "yes",
    "covered": "no",
    "departures_board": "timetable",
    "highway": "bus_stop",
    "name": "Krężnicka - przychodnia 02",
    "network": "Lublin",
    "operator": "ZDiTM Lublin",
    "public_transport": "platform",
    "ref": "4842",
    "request_stop": "no",
    "shelter": "yes",
    "source": "user wfl"
  }
},
{
  "type": "node",
  "id": 838773037,
  "lat": 51.2323972,
  "lon": 22.5059473,
  "tags": {
    "bench": "yes",
    "bin": "yes",
    "bus": "yes",
    "covered": "no",
    "departures_board": "timetable",
    "highway": "bus_stop",
    "name": "Wiklinowa 02",
    "network": "Lublin",
    "operator": "ZDiTM Lublin",
    "public_transport": "platform",
    "ref": "5652",
    "request_stop": "no",
    "shelter": "yes",
    "source": "user wfl",
    "trolleybus": "yes"
  }
},
{
  "type": "node",
  "id": 838773047,
  "lat": 51.2233977,
  "lon": 22.5229219,
  "tags": {
    "bench": "yes",
    "bin": "yes",
    "bus": "yes",
    "departures_board": "timetable",
    "highway": "bus_stop",
    "lit": "yes",
    "name": "Os. Widok 01",
    "network": "Lublin",
    "operator": "ZDiTM Lublin",
    "public_transport": "platform",
    "ref": "5351",
    "request_stop": "no",
    "shelter": "yes",
    "tactile_paving": "no",
    "trolleybus": "yes"
  }
},
{
  "type": "node",
  "id": 838773049,
  "lat": 51.2335172,
  "lon": 22.4992520,
  "tags": {
    "bench": "yes",
    "bin": "yes",
    "bus": "yes",
    "departures_board": "timetable",
    "highway": "bus_stop",
    "lit": "yes",
    "name": "Poznańska 01",
    "network": "Lublin",
    "operator": "ZDiTM Lublin",
    "public_transport": "platform",
    "ref": "5661",
    "request_stop": "no",
    "shelter": "yes",
    "source": "user wfl",
    "tactile_paving": "no",
    "trolleybus": "yes"
  }
},
{
  "type": "node",
  "id": 838773056,
  "lat": 51.1512536,
  "lon": 22.4669783,
  "tags": {
    "bench": "yes",
    "bus": "yes",
    "covered": "yes",
    "departures_board": "timetable",
    "highway": "bus_stop",
    "name": "Krężnica Jara PKP 02",
    "network": "Lublin",
    "operator": "ZDiTM Lublin",
    "public_transport": "platform",
    "ref": "8502",
    "request_stop": "no",
    "shelter": "yes",
    "source": "user wfl"
  }
},
{
  "type": "node",
  "id": 838773058,
  "lat": 51.1905110,
  "lon": 22.5260221,
  "tags": {
    "bus": "yes",
    "departures_board": "timetable",
    "highway": "bus_stop",
    "name": "Marina NŻ 02",
    "network": "Lublin",
    "operator": "ZDiTM Lublin",
    "public_transport": "platform",
    "ref": "4812",
    "request_stop": "yes",
    "shelter": "yes",
    "source": "user wfl"
  }
},
{
  "type": "node",
  "id": 838773070,
  "lat": 51.2357496,
  "lon": 22.4887736,
  "tags": {
    "bench": "yes",
    "bin": "yes",
    "bus": "yes",
    "departures_board": "timetable",
    "highway": "bus_stop",
    "lit": "no",
    "name": "Wertera NŻ 02",
    "network": "Lublin",
    "operator": "ZDiTM Lublin",
    "public_transport": "platform",
    "ref": "5822",
    "request_stop": "yes",
    "shelter": "no",
    "source": "user wfl",
    "tactile_paving": "no"
  }
},
{
  "type": "node",
  "id": 838773073,
  "lat": 51.1984994,
  "lon": 22.4845724,
  "tags": {
    "bench": "yes",
    "bin": "yes",
    "bus": "yes",
    "departures_board": "timetable",
    "highway": "bus_stop",
    "name": "Zemborzyce Podleśne 02",
    "network": "Lublin",
    "operator": "ZDiTM Lublin",
    "public_transport": "platform",
    "ref": "8862",
    "request_stop": "no",
    "shelter": "yes"
  }
},
{
  "type": "node",
  "id": 838773074,
  "lat": 51.1711472,
  "lon": 22.5041601,
  "tags": {
    "bench": "yes",
    "bus": "yes",
    "departures_board": "timetable",
    "highway": "bus_stop",
    "name": "Krężnicka - szkoła 01",
    "network": "Lublin",
    "operator": "ZDiTM Lublin",
    "public_transport": "platform",
    "ref": "4851",
    "request_stop": "no",
    "shelter": "yes",
    "source": "user wfl"
  }
},
{
  "type": "node",
  "id": 838773075,
  "lat": 51.2213502,
  "lon": 22.4465187,
  "tags": {
    "bench": "yes",
    "bus": "yes",
    "departures_board": "timetable",
    "highway": "bus_stop",
    "name": "Konopnica - szkoła 01",
    "network": "Lublin",
    "operator": "ZDiTM Lublin",
    "public_transport": "platform",
    "ref": "8901",
    "request_stop": "no",
    "source": "user wfl"
  }
},
{
  "type": "node",
  "id": 838773084,
  "lat": 51.1895152,
  "lon": 22.4842791,
  "tags": {
    "bench": "yes",
    "bin": "no",
    "bus": "yes",
    "departures_board": "timetable",
    "description:en": "departures board for this stop is on the stop on the other side of the street",
    "description:pl": "Rozkład jazdy dla tego przystanku znajduje się na przystanku po drugiej stronie ulicy",
    "highway": "bus_stop",
    "name": "Zemborzyce Podleśne I NŻ 02",
    "network": "Lublin",
    "operator": "ZDiTM Lublin",
    "public_transport": "platform",
    "ref": "8842",
    "request_stop": "yes",
    "shelter": "no",
    "sign": "no",
    "source": "user wfl"
  }
},
{
  "type": "node",
  "id": 838773085,
  "lat": 51.1836533,
  "lon": 22.5214335,
  "tags": {
    "bench": "yes",
    "bin": "yes",
    "bus": "yes",
    "covered": "no",
    "departures_board": "timetable",
    "highway": "bus_stop",
    "name": "Letniskowa NŻ 02",
    "network": "Lublin",
    "operator": "ZDiTM Lublin",
    "public_transport": "platform",
    "ref": "4822",
    "request_stop": "yes",
    "shelter": "no",
    "source": "user wfl"
  }
},
{
  "type": "node",
  "id": 838773089,
  "lat": 51.2360468,
  "lon": 22.4886850,
  "tags": {
    "bench": "yes",
    "bin": "yes",
    "bus": "yes",
    "departures_board": "timetable",
    "highway": "bus_stop",
    "lit": "no",
    "name": "Wertera NŻ 01",
    "network": "Lublin",
    "operator": "ZDiTM Lublin",
    "public_transport": "platform",
    "ref": "5821",
    "request_stop": "yes",
    "shelter": "no",
    "source": "user wfl",
    "tactile_paving": "no"
  }
},
{
  "type": "node",
  "id": 838773099,
  "lat": 51.2273470,
  "lon": 22.5194306,
  "tags": {
    "bench": "yes",
    "bin": "yes",
    "bus": "yes",
    "covered": "no",
    "departures_board": "realtime",
    "highway": "bus_stop",
    "lit": "yes",
    "name": "Szmaragdowa 02",
    "network": "Lublin",
    "operator": "ZDiTM Lublin",
    "public_transport": "platform",
    "ref": "5612",
    "request_stop": "no",
    "shelter": "yes",
    "source": "user wfl",
    "tactile_paving": "no",
    "trolleybus": "yes"
  }
},
{
  "type": "node",
  "id": 838773101,
  "lat": 51.1702417,
  "lon": 22.4857377,
  "tags": {
    "bench": "yes",
    "bin": "yes",
    "bus": "yes",
    "departures_board": "timetable",
    "highway": "bus_stop",
    "name": "Ku Słońcu NŻ 02",
    "network": "Lublin",
    "operator": "ZDiTM Lublin",
    "public_transport": "platform",
    "ref": "8772",
    "request_stop": "yes",
    "shelter": "no"
  }
},
{
  "type": "node",
  "id": 838773107,
  "lat": 51.2324631,
  "lon": 22.5070107,
  "tags": {
    "bench": "yes",
    "bin": "yes",
    "bus": "yes",
    "departures_board": "timetable",
    "highway": "bus_stop",
    "lit": "yes",
    "name": "Wiklinowa 01",
    "network": "Lublin",
    "operator": "ZDiTM Lublin",
    "public_transport": "platform",
    "ref": "5651",
    "request_stop": "no",
    "shelter": "yes",
    "source": "user wfl",
    "tactile_paving": "no",
    "trolleybus": "yes"
  }
},
{
  "type": "node",
  "id": 838773118,
  "lat": 51.1827146,
  "lon": 22.5206198,
  "tags": {
    "bin": "yes",
    "bus": "yes",
    "departures_board": "timetable",
    "highway": "bus_stop",
    "name": "Letniskowa NŻ 01",
    "network": "Lublin",
    "operator": "ZDiTM Lublin",
    "public_transport": "platform",
    "ref": "4821",
    "request_stop": "yes",
    "shelter": "no",
    "source": "user wfl"
  }
},
{
  "type": "node",
  "id": 838773121,
  "lat": 51.2164059,
  "lon": 22.5353974,
  "tags": {
    "bench": "yes",
    "bus": "yes",
    "departures_board": "timetable",
    "highway": "bus_stop",
    "name": "Janowska - stacja pomp NŻ 02",
    "network": "Lublin",
    "operator": "ZDiTM Lublin",
    "public_transport": "platform",
    "ref": "4762",
    "request_stop": "yes",
    "shelter": "yes"
  }
},
{
  "type": "node",
  "id": 838773128,
  "lat": 51.1642107,
  "lon": 22.5058118,
  "tags": {
    "bench": "yes",
    "bus": "yes",
    "departures_board": "timetable",
    "highway": "bus_stop",
    "name": "Roślinna 02",
    "network": "Lublin",
    "operator": "ZDiTM Lublin",
    "public_transport": "platform",
    "ref": "4872",
    "request_stop": "no",
    "shelter": "yes",
    "source": "user wfl"
  }
},
{
  "type": "node",
  "id": 838773132,
  "lat": 51.1833672,
  "lon": 22.4637619,
  "tags": {
    "bench": "no",
    "bin": "no",
    "bus": "yes",
    "departures_board": "timetable",
    "highway": "bus_stop",
    "name": "Zemborzyce Tereszyńskie - szkoła 01",
    "network": "Lublin",
    "operator": "ZDiTM Lublin",
    "public_transport": "platform",
    "ref": "8741",
    "request_stop": "no",
    "shelter": "no"
  }
},
{
  "type": "node",
  "id": 838773175,
  "lat": 51.2063613,
  "lon": 22.5422644,
  "tags": {
    "bench": "yes",
    "bus": "yes",
    "covered": "no",
    "departures_board": "timetable",
    "highway": "bus_stop",
    "name": "Romera 02",
    "network": "Lublin",
    "operator": "ZDiTM Lublin",
    "public_transport": "platform",
    "ref": "4572",
    "request_stop": "no",
    "shelter": "yes",
    "source": "user wfl",
    "trolleybus": "yes"
  }
},
{
  "type": "node",
  "id": 838773177,
  "lat": 51.2106441,
  "lon": 22.5309264,
  "tags": {
    "bench": "yes",
    "bus": "yes",
    "departures_board": "timetable",
    "highway": "bus_stop",
    "name": "Parczewska NŻ 02",
    "network": "Lublin",
    "operator": "ZDiTM Lublin",
    "public_transport": "platform",
    "ref": "4772",
    "request_stop": "yes",
    "shelter": "yes",
    "source": "user wfl"
  }
},
{
  "type": "node",
  "id": 838773185,
  "lat": 51.2061795,
  "lon": 22.5290855,
  "tags": {
    "bench": "yes",
    "bus": "yes",
    "departures_board": "timetable",
    "highway": "bus_stop",
    "name": "Rąblowska NŻ 02",
    "network": "Lublin",
    "operator": "ZDiTM Lublin",
    "public_transport": "platform",
    "ref": "4782",
    "request_stop": "yes",
    "shelter": "yes",
    "source": "user wfl"
  }
},
{
  "type": "node",
  "id": 838773187,
  "lat": 51.2254203,
  "lon": 22.5316053,
  "tags": {
    "bench": "yes",
    "bin": "yes",
    "bus": "yes",
    "check_date:bench": "2022-08-02",
    "covered": "no",
    "departures_board": "timetable",
    "highway": "bus_stop",
    "lit": "no",
    "name": "Os. Górki 01",
    "network": "Lublin",
    "operator": "ZDiTM Lublin",
    "public_transport": "platform",
    "ref": "5601",
    "request_stop": "no",
    "shelter": "yes",
    "source": "user wfl",
    "tactile_paving": "yes",
    "trolleybus": "yes"
  }
},
{
  "type": "node",
  "id": 838773192,
  "lat": 51.2223097,
  "lon": 22.5386976,
  "tags": {
    "bench": "no",
    "bin": "yes",
    "bus": "yes",
    "departures_board": "timetable",
    "highway": "bus_stop",
    "lit": "no",
    "name": "Wąwozowa NŻ 02",
    "network": "Lublin",
    "operator": "ZDiTM Lublin",
    "public_transport": "platform",
    "ref": "4742",
    "request_stop": "yes",
    "shelter": "no",
    "source": "user wfl",
    "tactile_paving": "no"
  }
},
{
  "type": "node",
  "id": 838773193,
  "lat": 51.1536505,
  "lon": 22.5102186,
  "tags": {
    "bus": "yes",
    "departures_board": "timetable",
    "highway": "bus_stop",
    "name": "Poranna NŻ 01",
    "network": "Lublin",
    "operator": "ZDiTM Lublin",
    "public_transport": "platform",
    "ref": "4881",
    "request_stop": "yes",
    "shelter": "yes"
  }
},
{
  "type": "node",
  "id": 838773195,
  "lat": 51.1966598,
  "lon": 22.5397394,
  "tags": {
    "bench": "yes",
    "bus": "yes",
    "covered": "no",
    "departures_board": "timetable",
    "highway": "bus_stop",
    "name": "Zalewskiego 02",
    "network": "Lublin",
    "operator": "ZDiTM Lublin",
    "passenger_information_display": "no",
    "public_transport": "platform",
    "ref": "4592",
    "request_stop": "no",
    "route_ref": "1;15;21;25;37;38;40;78;N1",
    "shelter": "yes",
    "trolleybus": "yes"
  }
},
{
  "type": "node",
  "id": 838773203,
  "lat": 51.1512390,
  "lon": 22.4608397,
  "tags": {
    "bench": "yes",
    "bin": "yes",
    "bus": "yes",
    "covered": "yes",
    "departures_board": "timetable",
    "highway": "bus_stop",
    "name": "Krężnica Jara - most 02",
    "network": "Lublin",
    "operator": "ZDiTM Lublin",
    "public_transport": "platform",
    "ref": "8512",
    "request_stop": "no",
    "shelter": "yes",
    "source": "user wfl"
  }
},
{
  "type": "node",
  "id": 838773204,
  "lat": 51.2146864,
  "lon": 22.5452507,
  "tags": {
    "bench": "yes",
    "bin": "yes",
    "bus": "yes",
    "check_date:shelter": "2020-11-21",
    "departures_board": "timetable",
    "highway": "bus_stop",
    "lit": "yes",
    "name": "Romera - kościół 01",
    "network": "Lublin",
    "operator": "ZDiTM Lublin",
    "public_transport": "platform",
    "ref": "4551",
    "request_stop": "no",
    "shelter": "yes",
    "source": "user wfl",
    "tactile_paving": "no",
    "trolleybus": "yes"
  }
},
{
  "type": "node",
  "id": 838773206,
  "lat": 51.2251146,
  "lon": 22.5040018,
  "tags": {
    "bench": "no",
    "bin": "yes",
    "bus": "yes",
    "departures_board": "timetable",
    "highway": "bus_stop",
    "name": "Perłowa 01",
    "network": "Lublin",
    "operator": "ZDiTM Lublin",
    "public_transport": "platform",
    "ref": "5551",
    "request_stop": "no",
    "shelter": "no",
    "source": "user wfl",
    "trolleybus": "yes"
  }
},
{
  "type": "node",
  "id": 838773216,
  "lat": 51.2299616,
  "lon": 22.4925227,
  "tags": {
    "bench": "yes",
    "bin": "yes",
    "bus": "yes",
    "check_date:shelter": "2022-11-13",
    "departures_board": "timetable",
    "highway": "bus_stop",
    "name": "Os. Świt 02",
    "network": "Lublin",
    "operator": "ZDiTM Lublin",
    "public_transport": "platform",
    "ref": "5802",
    "request_stop": "no",
    "shelter": "yes",
    "source": "user wfl",
    "tactile_paving": "no",
    "trolleybus": "yes"
  }
},
{
  "type": "node",
  "id": 838773217,
  "lat": 51.1794753,
  "lon": 22.5185752,
  "tags": {
    "bench": "yes",
    "bin": "yes",
    "bus": "yes",
    "covered": "no",
    "departures_board": "timetable",
    "highway": "bus_stop",
    "name": "Hotel Pod Kasztanami NŻ 02",
    "network": "Lublin",
    "operator": "ZDiTM Lublin",
    "public_transport": "platform",
    "ref": "4832",
    "request_stop": "yes",
    "shelter": "yes",
    "source": "user wfl"
  }
},
{
  "type": "node",
  "id": 838773220,
  "lat": 51.1820264,
  "lon": 22.4966866,
  "tags": {
    "bench": "yes",
    "bin": "no",
    "bus": "yes",
    "departures_board": "timetable",
    "highway": "bus_stop",
    "name": "Pszczela - granica miasta NŻ 01",
    "network": "Lublin",
    "operator": "ZDiTM Lublin",
    "public_transport": "platform",
    "ref": "8821",
    "request_stop": "yes",
    "shelter": "no"
  }
},
{
  "type": "node",
  "id": 838773225,
  "lat": 51.2373323,
  "lon": 22.5309402,
  "tags": {
    "bench": "yes",
    "bin": "yes",
    "bus": "yes",
    "check_date:bench": "2022-08-02",
    "covered": "no",
    "departures_board": "timetable",
    "highway": "bus_stop",
    "name": "ZUS 04",
    "network": "Lublin",
    "operator": "ZDiTM Lublin",
    "public_transport": "platform",
    "ref": "5414",
    "request_stop": "no",
    "shelter": "yes",
    "trolleybus": "yes"
  }
},
{
  "type": "node",
  "id": 838773229,
  "lat": 51.2308159,
  "lon": 22.5272974,
  "tags": {
    "bench": "yes",
    "bin": "yes",
    "bus": "yes",
    "check_date:shelter": "2022-08-02",
    "departures_board": "timetable",
    "highway": "bus_stop",
    "name": "Sympatyczna 01",
    "network": "Lublin",
    "operator": "ZDiTM Lublin",
    "public_transport": "platform",
    "ref": "5331",
    "request_stop": "no",
    "shelter": "yes",
    "source": "user wfl",
    "trolleybus": "yes"
  }
},
{
  "type": "node",
  "id": 838773235,
  "lat": 51.2352542,
  "lon": 22.5109988,
  "tags": {
    "bench": "yes",
    "bin": "yes",
    "bus": "yes",
    "covered": "no",
    "departures_board": "timetable",
    "highway": "bus_stop",
    "name": "Dziewanny 01",
    "network": "Lublin",
    "operator": "ZDiTM Lublin",
    "public_transport": "platform",
    "ref": "5521",
    "request_stop": "no",
    "shelter": "yes",
    "source": "user wfl",
    "trolleybus": "yes"
  }
},
{
  "type": "node",
  "id": 838773241,
  "lat": 51.2184122,
  "lon": 22.5366978,
  "tags": {
    "bench": "no",
    "bus": "yes",
    "departures_board": "timetable",
    "highway": "bus_stop",
    "name": "Koło NŻ 01",
    "network": "Lublin",
    "operator": "ZDiTM Lublin",
    "public_transport": "platform",
    "ref": "4751",
    "request_stop": "yes",
    "shelter": "no",
    "source": "user wfl"
  }
},
{
  "type": "node",
  "id": 838773242,
  "lat": 51.1885071,
  "lon": 22.5450054,
  "tags": {
    "bench": "no",
    "bin": "yes",
    "bus": "yes",
    "departures_board": "timetable",
    "highway": "bus_stop",
    "lit": "no",
    "name": "Ośrodek Wrotków NŻ 01",
    "network": "Lublin",
    "operator": "ZDiTM Lublin",
    "public_transport": "platform",
    "ref": "4311",
    "request_stop": "yes",
    "shelter": "no",
    "tactile_paving": "no"
  }
},
{
  "type": "node",
  "id": 838773244,
  "lat": 51.1679692,
  "lon": 22.4980133,
  "tags": {
    "bench": "yes",
    "bus": "yes",
    "departures_board": "timetable",
    "highway": "bus_stop",
    "name": "Cienista 03",
    "network": "Lublin",
    "operator": "ZDiTM Lublin",
    "public_transport": "platform",
    "ref": "4863",
    "request_stop": "no",
    "source": "user wfl"
  }
},
{
  "type": "node",
  "id": 838773251,
  "lat": 51.2096299,
  "lon": 22.4499701,
  "tags": {
    "bench": "yes",
    "bin": "yes",
    "bus": "yes",
    "departures_board": "timetable",
    "highway": "bus_stop",
    "lit": "no",
    "name": "Konopnica - las 02",
    "network": "Lublin",
    "operator": "ZDiTM Lublin",
    "public_transport": "platform",
    "ref": "8712",
    "request_stop": "no",
    "shelter": "yes",
    "source": "user wfl",
    "tactile_paving": "no"
  }
},
{
  "type": "node",
  "id": 838773255,
  "lat": 51.1557313,
  "lon": 22.4817000,
  "tags": {
    "bus": "yes",
    "departures_board": "timetable",
    "highway": "bus_stop",
    "name": "Zemborzyce Górne I 02",
    "network": "Lublin",
    "operator": "ZDiTM Lublin",
    "public_transport": "platform",
    "ref": "4922",
    "request_stop": "no",
    "source": "user wfl"
  }
},
{
  "type": "node",
  "id": 838773257,
  "lat": 51.2163822,
  "lon": 22.5351843,
  "tags": {
    "bus": "yes",
    "departures_board": "timetable",
    "highway": "bus_stop",
    "name": "Janowska - stacja pomp NŻ 01",
    "network": "Lublin",
    "operator": "ZDiTM Lublin",
    "public_transport": "platform",
    "ref": "4761",
    "request_stop": "yes"
  }
},
{
  "type": "node",
  "id": 838773264,
  "lat": 51.1781686,
  "lon": 22.5029405,
  "tags": {
    "bench": "yes",
    "bin": "yes",
    "bus": "yes",
    "departures_board": "timetable",
    "highway": "bus_stop",
    "name": "Pszczela - cmentarz NŻ 01",
    "network": "Lublin",
    "operator": "ZDiTM Lublin",
    "public_transport": "platform",
    "ref": "8811",
    "request_stop": "yes",
    "shelter": "yes"
  }
},
{
  "type": "node",
  "id": 838773266,
  "lat": 51.2006038,
  "lon": 22.5275870,
  "tags": {
    "bench": "no",
    "bus": "yes",
    "departures_board": "timetable",
    "highway": "bus_stop",
    "name": "Lipska 01",
    "network": "Lublin",
    "operator": "ZDiTM Lublin",
    "public_transport": "platform",
    "ref": "4791",
    "request_stop": "no",
    "shelter": "no",
    "source": "user wfl"
  }
},
{
  "type": "node",
  "id": 838773269,
  "lat": 51.1701148,
  "lon": 22.4857636,
  "tags": {
    "bench": "no",
    "bin": "yes",
    "bus": "yes",
    "departures_board": "timetable",
    "highway": "bus_stop",
    "name": "Ku Słońcu NŻ 01",
    "network": "Lublin",
    "operator": "ZDiTM Lublin",
    "public_transport": "platform",
    "ref": "8771",
    "request_stop": "yes",
    "shelter": "no"
  }
},
{
  "type": "node",
  "id": 838773277,
  "lat": 51.2333595,
  "lon": 22.4979797,
  "tags": {
    "bench": "yes",
    "bin": "yes",
    "bus": "yes",
    "departures_board": "timetable",
    "highway": "bus_stop",
    "lit": "yes",
    "name": "Poznańska 02",
    "network": "Lublin",
    "operator": "ZDiTM Lublin",
    "public_transport": "platform",
    "ref": "5662",
    "request_stop": "no",
    "shelter": "yes",
    "source": "user wfl",
    "tactile_paving": "no",
    "trolleybus": "yes"
  }
},
{
  "type": "node",
  "id": 838773280,
  "lat": 51.2195183,
  "lon": 22.4569911,
  "tags": {
    "bench": "yes",
    "bin": "yes",
    "bus": "yes",
    "departures_board": "timetable",
    "highway": "bus_stop",
    "name": "Konopnica - kościół 03",
    "network": "Lublin",
    "operator": "ZDiTM Lublin",
    "public_transport": "platform",
    "ref": "8703",
    "request_stop": "no",
    "shelter": "yes"
  }
},
{
  "type": "node",
  "id": 838773282,
  "lat": 51.1782059,
  "lon": 22.4726269,
  "tags": {
    "bench": "no",
    "bin": "no",
    "bus": "yes",
    "departures_board": "timetable",
    "highway": "bus_stop",
    "name": "Zemborzyce Wojciechowskie NŻ 02",
    "network": "Lublin",
    "operator": "ZDiTM Lublin",
    "public_transport": "platform",
    "ref": "8752",
    "request_stop": "yes",
    "shelter": "no"
  }
},
{
  "type": "node",
  "id": 838773285,
  "lat": 51.1860424,
  "lon": 22.4901009,
  "tags": {
    "bench": "no",
    "bin": "no",
    "bus": "yes",
    "departures_board": "timetable",
    "highway": "bus_stop",
    "name": "Zemborzyce Podleśne - skrzyżowanie NŻ 01",
    "network": "Lublin",
    "operator": "ZDiTM Lublin",
    "public_transport": "platform",
    "ref": "8831",
    "request_stop": "yes",
    "shelter": "no"
  }
},
{
  "type": "node",
  "id": 838773293,
  "lat": 51.2253123,
  "lon": 22.5054535,
  "tags": {
    "bench": "yes",
    "bin": "yes",
    "bus": "yes",
    "covered": "no",
    "departures_board": "realtime",
    "highway": "bus_stop",
    "name": "Perłowa 02",
    "network": "Lublin",
    "operator": "ZDiTM Lublin",
    "public_transport": "platform",
    "ref": "5552",
    "request_stop": "no",
    "shelter": "yes",
    "source": "user wfl",
    "trolleybus": "yes"
  }
},
{
  "type": "node",
  "id": 838773296,
  "lat": 51.2300639,
  "lon": 22.5129163,
  "tags": {
    "bench": "yes",
    "bus": "yes",
    "covered": "no",
    "departures_board": "timetable",
    "highway": "bus_stop",
    "name": "Jutrzenki 01",
    "network": "Lublin",
    "operator": "ZDiTM Lublin",
    "public_transport": "platform",
    "ref": "5531",
    "request_stop": "no",
    "shelter": "yes",
    "source": "user wfl",
    "trolleybus": "yes"
  }
},
{
  "type": "node",
  "id": 838773301,
  "lat": 51.1688758,
  "lon": 22.4999634,
  "tags": {
    "bench": "yes",
    "bus": "yes",
    "covered": "no",
    "departures_board": "timetable",
    "highway": "bus_stop",
    "name": "Cienista 02",
    "network": "Lublin",
    "operator": "ZDiTM Lublin",
    "public_transport": "platform",
    "ref": "4862",
    "request_stop": "no",
    "shelter": "yes",
    "source": "user wfl"
  }
},
{
  "type": "node",
  "id": 838773306,
  "lat": 51.2097827,
  "lon": 22.4498906,
  "tags": {
    "bench": "no",
    "bin": "no",
    "bus": "yes",
    "departures_board": "timetable",
    "highway": "bus_stop",
    "lit": "no",
    "name": "Konopnica - las 01",
    "network": "Lublin",
    "operator": "ZDiTM Lublin",
    "public_transport": "platform",
    "ref": "8711",
    "request_stop": "no",
    "shelter": "no",
    "source": "user wfl",
    "tactile_paving": "no"
  }
},
{
  "type": "node",
  "id": 838773307,
  "lat": 51.1928736,
  "lon": 22.4787474,
  "tags": {
    "bench": "yes",
    "bin": "yes",
    "bus": "yes",
    "departures_board": "timetable",
    "highway": "bus_stop",
    "name": "Zemborzyce Podleśne - sklep NŻ 02",
    "network": "Lublin",
    "operator": "ZDiTM Lublin",
    "public_transport": "platform",
    "ref": "8852",
    "request_stop": "yes",
    "shelter": "yes"
  }
},
{
  "type": "node",
  "id": 838773331,
  "lat": 51.2355319,
  "lon": 22.5367341,
  "tags": {
    "bench": "yes",
    "bin": "yes",
    "bus": "yes",
    "covered": "no",
    "departures_board": "timetable",
    "highway": "bus_stop",
    "name": "Brzeskiej 02",
    "network": "Lublin",
    "operator": "ZDiTM Lublin",
    "public_transport": "platform",
    "ref": "5402",
    "request_stop": "no",
    "shelter": "yes",
    "source": "user wfl",
    "trolleybus": "yes"
  }
},
{
  "type": "node",
  "id": 838773333,
  "lat": 51.2247776,
  "lon": 22.4978072,
  "tags": {
    "bench": "yes",
    "bin": "yes",
    "bus": "yes",
    "departures_board": "timetable",
    "highway": "bus_stop",
    "name": "Kryształowa 02",
    "network": "Lublin",
    "operator": "ZDiTM Lublin",
    "public_transport": "platform",
    "ref": "5562",
    "request_stop": "no",
    "shelter": "yes",
    "source": "user wfl",
    "trolleybus": "yes"
  }
},
{
  "type": "node",
  "id": 838773336,
  "lat": 51.2220640,
  "lon": 22.5386728,
  "tags": {
    "bus": "yes",
    "departures_board": "timetable",
    "highway": "bus_stop",
    "name": "Wąwozowa NŻ 01",
    "network": "Lublin",
    "operator": "ZDiTM Lublin",
    "public_transport": "platform",
    "ref": "4741",
    "request_stop": "yes",
    "shelter": "no",
    "source": "user wfl"
  }
},
{
  "type": "node",
  "id": 838773339,
  "lat": 51.2301123,
  "lon": 22.5133820,
  "tags": {
    "bench": "yes",
    "bin": "yes",
    "bus": "yes",
    "covered": "no",
    "departures_board": "timetable",
    "highway": "bus_stop",
    "name": "Jutrzenki 02",
    "network": "Lublin",
    "operator": "ZDiTM Lublin",
    "public_transport": "platform",
    "ref": "5532",
    "request_stop": "no",
    "shelter": "yes",
    "source": "user wfl",
    "trolleybus": "yes"
  }
},
{
  "type": "node",
  "id": 838773347,
  "lat": 51.1952180,
  "lon": 22.5404317,
  "tags": {
    "bench": "no",
    "bin": "yes",
    "bus": "yes",
    "departures_board": "timetable",
    "highway": "bus_stop",
    "name": "Żeglarska II NŻ 01",
    "network": "Lublin",
    "operator": "ZDiTM Lublin",
    "public_transport": "platform",
    "ref": "4621",
    "request_stop": "yes",
    "shelter": "no",
    "source": "user wfl",
    "trolleybus": "yes"
  }
},
{
  "type": "node",
  "id": 838773349,
  "lat": 51.2281997,
  "lon": 22.5247839,
  "tags": {
    "bench": "yes",
    "bin": "yes",
    "bus": "yes",
    "covered": "no",
    "departures_board": "timetable",
    "highway": "bus_stop",
    "name": "Fantastyczna 01",
    "network": "Lublin",
    "operator": "ZTM Lublin",
    "public_transport": "platform",
    "ref": "5341",
    "request_stop": "no",
    "shelter": "yes",
    "source": "user wfl",
    "trolleybus": "yes"
  }
},
{
  "type": "node",
  "id": 838773358,
  "lat": 51.2057295,
  "lon": 22.5423549,
  "tags": {
    "bench": "no",
    "bus": "yes",
    "departures_board": "timetable",
    "highway": "bus_stop",
    "name": "Romera 01",
    "network": "Lublin",
    "operator": "ZDiTM Lublin",
    "public_transport": "platform",
    "ref": "4571",
    "request_stop": "no",
    "shelter": "no",
    "source": "user wfl",
    "trolleybus": "yes"
  }
},
{
  "type": "node",
  "id": 838773359,
  "lat": 51.1505280,
  "lon": 22.4599482,
  "tags": {
    "bus": "yes",
    "departures_board": "timetable",
    "highway": "bus_stop",
    "name": "Krężnica Jara - most 01",
    "network": "Lublin",
    "operator": "ZDiTM Lublin",
    "public_transport": "platform",
    "ref": "8511",
    "request_stop": "no",
    "source": "user wfl"
  }
},
{
  "type": "node",
  "id": 838773361,
  "lat": 51.1681135,
  "lon": 22.4992668,
  "tags": {
    "bench": "no",
    "bus": "yes",
    "departures_board": "timetable",
    "highway": "bus_stop",
    "name": "Cienista 01",
    "network": "Lublin",
    "operator": "ZDiTM Lublin",
    "public_transport": "platform",
    "ref": "4861",
    "request_stop": "no",
    "shelter": "no",
    "source": "user wfl"
  }
},
{
  "type": "node",
  "id": 838773372,
  "lat": 51.1740955,
  "lon": 22.5099668,
  "tags": {
    "bench": "yes",
    "bus": "yes",
    "departures_board": "timetable",
    "highway": "bus_stop",
    "name": "Krężnicka - przychodnia 01",
    "network": "Lublin",
    "operator": "ZDiTM Lublin",
    "public_transport": "platform",
    "ref": "4841",
    "request_stop": "no",
    "shelter": "yes",
    "source": "user wfl"
  }
},
{
  "type": "node",
  "id": 838773376,
  "lat": 51.2275803,
  "lon": 22.5196154,
  "tags": {
    "bench": "yes",
    "bin": "yes",
    "bus": "yes",
    "departures_board": "timetable",
    "highway": "bus_stop",
    "lit": "yes",
    "name": "Szmaragdowa 01",
    "network": "Lublin",
    "operator": "ZDiTM Lublin",
    "public_transport": "platform",
    "ref": "5611",
    "request_stop": "no",
    "shelter": "no",
    "source": "user wfl",
    "trolleybus": "yes"
  }
},
{
  "type": "node",
  "id": 838773379,
  "lat": 51.2371356,
  "lon": 22.5290807,
  "tags": {
    "bench": "yes",
    "bin": "yes",
    "bus": "yes",
    "covered": "no",
    "departures_board": "timetable",
    "highway": "bus_stop",
    "name": "ZUS 01",
    "network": "Lublin",
    "operator": "ZDiTM Lublin",
    "public_transport": "platform",
    "ref": "5411",
    "request_stop": "no",
    "shelter": "yes",
    "tactile_paving": "no",
    "trolleybus": "yes"
  }
},
{
  "type": "node",
  "id": 838773392,
  "lat": 51.2144994,
  "lon": 22.5453871,
  "tags": {
    "bench": "yes",
    "bin": "yes",
    "bus": "yes",
    "covered": "no",
    "departures_board": "timetable",
    "highway": "bus_stop",
    "lit": "yes",
    "name": "Romera - kościół 02",
    "network": "Lublin",
    "operator": "ZDiTM Lublin",
    "public_transport": "platform",
    "ref": "4552",
    "request_stop": "no",
    "shelter": "yes",
    "source": "user wfl",
    "tactile_paving": "no",
    "trolleybus": "yes"
  }
},
{
  "type": "node",
  "id": 838773405,
  "lat": 51.1527990,
  "lon": 22.4773425,
  "tags": {
    "bench": "yes",
    "bus": "yes",
    "departures_board": "timetable",
    "highway": "bus_stop",
    "name": "Marzanny NŻ 02",
    "network": "Lublin",
    "operator": "ZDiTM Lublin",
    "public_transport": "platform",
    "ref": "4932",
    "request_stop": "yes",
    "shelter": "yes"
  }
},
{
  "type": "node",
  "id": 838773413,
  "lat": 51.2319043,
  "lon": 22.5378351,
  "tags": {
    "bench": "yes",
    "bin": "yes",
    "bus": "yes",
    "covered": "no",
    "departures_board": "timetable",
    "highway": "bus_stop",
    "name": "Pozytywistów 01",
    "network": "Lublin",
    "operator": "ZDiTM Lublin",
    "public_transport": "platform",
    "ref": "5121",
    "request_stop": "no",
    "shelter": "yes",
    "source": "user wfl",
    "trolleybus": "yes"
  }
},
{
  "type": "node",
  "id": 838773418,
  "lat": 51.1943733,
  "lon": 22.5272524,
  "tags": {
    "bench": "yes",
    "bus": "yes",
    "departures_board": "timetable",
    "highway": "bus_stop",
    "name": "Krężnicka - kemping NŻ 01",
    "network": "Lublin",
    "operator": "ZDiTM Lublin",
    "public_transport": "platform",
    "ref": "4801",
    "request_stop": "yes",
    "shelter": "yes",
    "source": "user wfl"
  }
},
{
  "type": "node",
  "id": 838773419,
  "lat": 51.2272579,
  "lon": 22.5113466,
  "tags": {
    "bench": "yes",
    "bin": "yes",
    "bus": "yes",
    "covered": "no",
    "departures_board": "timetable",
    "highway": "bus_stop",
    "lit": "yes",
    "name": "Bociania 02",
    "network": "Lublin",
    "operator": "ZDiTM Lublin",
    "public_transport": "platform",
    "ref": "5542",
    "request_stop": "no",
    "shelter": "yes",
    "source": "user wfl",
    "tactile_paving": "no",
    "trolleybus": "yes"
  }
},
{
  "type": "node",
  "id": 838773426,
  "lat": 51.2103419,
  "lon": 22.5303162,
  "tags": {
    "bench": "yes",
    "bus": "yes",
    "departures_board": "timetable",
    "highway": "bus_stop",
    "name": "Parczewska NŻ 01",
    "network": "Lublin",
    "operator": "ZDiTM Lublin",
    "public_transport": "platform",
    "ref": "4771",
    "request_stop": "yes",
    "shelter": "no",
    "source": "user wfl"
  }
},
{
  "type": "node",
  "id": 838773432,
  "lat": 51.1718385,
  "lon": 22.5056928,
  "tags": {
    "bench": "yes",
    "bus": "yes",
    "covered": "no",
    "departures_board": "timetable",
    "highway": "bus_stop",
    "name": "Krężnicka - szkoła 02",
    "network": "Lublin",
    "operator": "ZDiTM Lublin",
    "public_transport": "platform",
    "ref": "4852",
    "request_stop": "no",
    "shelter": "yes",
    "source": "user wfl"
  }
},
{
  "type": "node",
  "id": 838773433,
  "lat": 51.1637546,
  "lon": 22.5063466,
  "tags": {
    "bus": "yes",
    "departures_board": "timetable",
    "highway": "bus_stop",
    "name": "Roślinna 01",
    "network": "Lublin",
    "operator": "ZDiTM Lublin",
    "public_transport": "platform",
    "ref": "4871",
    "request_stop": "no",
    "shelter": "no"
  }
},
{
  "type": "node",
  "id": 838773441,
  "lat": 51.1993458,
  "lon": 22.5277425,
  "tags": {
    "bench": "yes",
    "bin": "yes",
    "bus": "yes",
    "departures_board": "timetable",
    "highway": "bus_stop",
    "name": "Lipska 02",
    "network": "Lublin",
    "operator": "ZDiTM Lublin",
    "public_transport": "platform",
    "ref": "4792",
    "request_stop": "no",
    "shelter": "yes",
    "source": "user wfl"
  }
},
{
  "type": "node",
  "id": 838773442,
  "lat": 51.2057433,
  "lon": 22.5287666,
  "tags": {
    "bench": "no",
    "bus": "yes",
    "departures_board": "timetable",
    "highway": "bus_stop",
    "name": "Rąblowska NŻ 01",
    "network": "Lublin",
    "operator": "ZDiTM Lublin",
    "public_transport": "platform",
    "ref": "4781",
    "request_stop": "yes",
    "shelter": "no",
    "source": "user wfl"
  }
},
{
  "type": "node",
  "id": 838773450,
  "lat": 51.1893164,
  "lon": 22.5454096,
  "tags": {
    "bench": "no",
    "bin": "yes",
    "bus": "yes",
    "departures_board": "timetable",
    "highway": "bus_stop",
    "lit": "no",
    "name": "Ośrodek Wrotków NŻ 02",
    "network": "Lublin",
    "operator": "ZDiTM Lublin",
    "public_transport": "platform",
    "ref": "4312",
    "request_stop": "yes",
    "shelter": "no",
    "tactile_paving": "no"
  }
},
{
  "type": "node",
  "id": 838773455,
  "lat": 51.2253582,
  "lon": 22.5301989,
  "tags": {
    "bench": "yes",
    "bin": "yes",
    "bus": "yes",
    "covered": "no",
    "departures_board": "realtime",
    "highway": "bus_stop",
    "lit": "yes",
    "name": "Os. Górki 02",
    "network": "Lublin",
    "operator": "ZDiTM Lublin",
    "public_transport": "platform",
    "ref": "5602",
    "request_stop": "no",
    "shelter": "yes",
    "source": "user wfl",
    "tactile_paving": "no",
    "trolleybus": "yes"
  }
},
{
  "type": "node",
  "id": 838773457,
  "lat": 51.2279857,
  "lon": 22.5253107,
  "tags": {
    "bench": "yes",
    "bin": "yes",
    "bus": "yes",
    "check_date:bench": "2022-08-02",
    "covered": "no",
    "departures_board": "timetable",
    "highway": "bus_stop",
    "lit": "yes",
    "name": "Fantastyczna 02",
    "network": "Lublin",
    "operator": "ZTM Lublin",
    "public_transport": "platform",
    "ref": "5342",
    "request_stop": "no",
    "shelter": "yes",
    "source": "user wfl",
    "tactile_paving": "no",
    "trolleybus": "yes"
  }
},
{
  "type": "node",
  "id": 839912215,
  "lat": 51.1842763,
  "lon": 22.5966846,
  "tags": {
    "bench": "no",
    "bin": "yes",
    "bus": "yes",
    "departures_board": "timetable",
    "highway": "bus_stop",
    "name": "Strojnowskiego 01",
    "network": "Lublin",
    "operator": "ZDiTM Lublin",
    "public_transport": "platform",
    "ref": "3531",
    "request_stop": "no",
    "shelter": "no",
    "source": "user wfl"
  }
},
{
  "type": "node",
  "id": 839912225,
  "lat": 51.2026214,
  "lon": 22.5594284,
  "tags": {
    "bench": "no",
    "bus": "yes",
    "departures_board": "timetable",
    "highway": "bus_stop",
    "name": "Elektromontaż 01",
    "network": "Lublin",
    "operator": "ZDiTM Lublin",
    "public_transport": "platform",
    "ref": "4131",
    "request_stop": "no",
    "shelter": "no",
    "source": "user wfl",
    "trolleybus": "yes"
  }
},
{
  "type": "node",
  "id": 839912229,
  "lat": 51.1893830,
  "lon": 22.5985899,
  "tags": {
    "bench": "yes",
    "bus": "yes",
    "departures_board": "timetable",
    "highway": "bus_stop",
    "name": "Zdrowa NŻ 02",
    "network": "Lublin",
    "operator": "ZDiTM Lublin",
    "public_transport": "platform",
    "ref": "3642",
    "request_stop": "yes",
    "shelter": "yes",
    "source": "user wfl",
    "tactile_paving": "yes"
  }
},
{
  "type": "node",
  "id": 839912233,
  "lat": 51.2345097,
  "lon": 22.5720325,
  "tags": {
    "bench": "yes",
    "bin": "yes",
    "bus": "yes",
    "covered": "no",
    "departures_board": "realtime",
    "highway": "bus_stop",
    "lit": "yes",
    "name": "Plac Bychawski 03",
    "network": "Lublin",
    "operator": "ZDiTM Lublin",
    "public_transport": "platform",
    "ref": "3703",
    "request_stop": "no",
    "shelter": "yes",
    "tactile_paving": "yes",
    "trolleybus": "yes"
  }
},
{
  "type": "node",
  "id": 839912242,
  "lat": 51.1850738,
  "lon": 22.5968596,
  "tags": {
    "bench": "yes",
    "bus": "yes",
    "departures_board": "timetable",
    "highway": "bus_stop",
    "name": "Strojnowskiego 02",
    "network": "Lublin",
    "operator": "ZDiTM Lublin",
    "public_transport": "platform",
    "ref": "3532",
    "request_stop": "no",
    "shelter": "yes",
    "source": "user wfl"
  }
},
{
  "type": "node",
  "id": 839912245,
  "lat": 51.2042925,
  "lon": 22.6127556,
  "tags": {
    "bench": "yes",
    "bus": "yes",
    "departures_board": "timetable",
    "highway": "bus_stop",
    "name": "Zorza - sklep NŻ 02",
    "network": "Lublin",
    "operator": "ZDiTM Lublin",
    "public_transport": "platform",
    "ref": "3622",
    "request_stop": "yes",
    "source": "user wfl"
  }
},
{
  "type": "node",
  "id": 839912250,
  "lat": 51.2152657,
  "lon": 22.5913852,
  "tags": {
    "bench": "yes",
    "bus": "yes",
    "departures_board": "timetable",
    "highway": "bus_stop",
    "name": "Skrzynicka 02",
    "network": "Lublin",
    "operator": "ZDiTM Lublin",
    "public_transport": "platform",
    "ref": "3332",
    "request_stop": "no",
    "shelter": "yes",
    "source": "user wfl"
  }
},
{
  "type": "node",
  "id": 839912252,
  "lat": 51.2353705,
  "lon": 22.5678168,
  "tags": {
    "bench": "yes",
    "bin": "yes",
    "bus": "yes",
    "check_date:shelter": "2022-03-27",
    "departures_board": "realtime",
    "highway": "bus_stop",
    "lit": "no",
    "name": "Targi Lublin 02",
    "network": "Lublin",
    "operator": "ZDiTM Lublin",
    "public_transport": "platform",
    "ref": "3412",
    "request_stop": "no",
    "shelter": "yes",
    "tactile_paving": "yes",
    "trolleybus": "yes"
  }
},
{
  "type": "node",
  "id": 839912257,
  "lat": 51.2062251,
  "lon": 22.5502497,
  "tags": {
    "bench": "yes",
    "bus": "yes",
    "covered": "no",
    "departures_board": "timetable",
    "highway": "bus_stop",
    "name": "Domeyki 02",
    "network": "Lublin",
    "operator": "ZDiTM Lublin",
    "public_transport": "platform",
    "ref": "4412",
    "request_stop": "no",
    "shelter": "yes",
    "trolleybus": "yes"
  }
},
{
  "type": "node",
  "id": 839912261,
  "lat": 51.1887103,
  "lon": 22.5998292,
  "tags": {
    "bench": "yes",
    "bus": "yes",
    "departures_board": "timetable",
    "highway": "bus_stop",
    "name": "Zdrowa NŻ 01",
    "network": "Lublin",
    "operator": "ZDiTM Lublin",
    "public_transport": "platform",
    "ref": "3641",
    "request_stop": "yes",
    "shelter": "yes",
    "source": "user wfl",
    "tactile_paving": "yes"
  }
},
{
  "type": "node",
  "id": 839912265,
  "lat": 51.2144397,
  "lon": 22.5917984,
  "tags": {
    "bench": "no",
    "bin": "yes",
    "bus": "yes",
    "highway": "bus_stop",
    "name": "Skrzynicka 01",
    "network": "Lublin",
    "operator": "ZDiTM Lublin",
    "public_transport": "platform",
    "ref": "3331",
    "request_stop": "no",
    "shelter": "no",
    "source": "user wfl"
  }
},
{
  "type": "node",
  "id": 839912269,
  "lat": 51.2104771,
  "lon": 22.5484257,
  "tags": {
    "bench": "yes",
    "bus": "yes",
    "covered": "no",
    "highway": "bus_stop",
    "name": "Samsonowicza 02",
    "operator": "ZDiTM Lublin",
    "public_transport": "platform",
    "ref": "4402",
    "shelter": "yes"
  }
},
{
  "type": "node",
  "id": 839912284,
  "lat": 51.2224855,
  "lon": 22.5758112,
  "tags": {
    "bench": "yes",
    "bin": "yes",
    "bus": "yes",
    "covered": "no",
    "departures_board": "timetable",
    "highway": "bus_stop",
    "lit": "yes",
    "name": "Wyścigowa 01",
    "network": "Lublin",
    "operator": "ZDiTM Lublin",
    "public_transport": "platform",
    "ref": "3731",
    "request_stop": "no",
    "shelter": "yes",
    "source": "user wfl",
    "tactile_paving": "no",
    "trolleybus": "yes"
  }
},
{
  "type": "node",
  "id": 839912289,
  "lat": 51.2240469,
  "lon": 22.5576846,
  "tags": {
    "bench": "yes",
    "bin": "yes",
    "bus": "yes",
    "departures_board": "timetable",
    "highway": "bus_stop",
    "lit": "yes",
    "name": "Skwer Borowiczan 01",
    "network": "Lublin",
    "operator": "ZDiTM Lublin",
    "public_transport": "platform",
    "ref": "4521",
    "request_stop": "no",
    "shelter": "no",
    "source": "user wfl",
    "tactile_paving": "no"
  }
},
{
  "type": "node",
  "id": 839912295,
  "lat": 51.1942277,
  "lon": 22.5468193,
  "tags": {
    "bus": "yes",
    "departures_board": "timetable",
    "highway": "bus_stop",
    "name": "Osmolicka NŻ 01",
    "network": "Lublin",
    "operator": "ZDiTM Lublin",
    "public_transport": "platform",
    "ref": "4141",
    "request_stop": "yes",
    "source": "user wfl"
  }
},